$GNRMC,152409.000,A,1831.064202,N,07348.920436,E,0
$GNRMC,152409.000,A,1831.064202,N,07348.920436,E,0.10,45.59,210125,,,A,V*33
$GNGGA,152409.000,1831.
,07348.920436,E,1,13,0.77,599.605,M,-64.657,M,,*5D
,07348.920436,E,1,13,0.77,599.605,M,-64.657,M,,*5D
$GNVTG,45.59,T,,M,0.10,N,0.19,K,A*17
$GNGSA,A,3
5,196,13,195,18,,,,,,1.14,0.77,0.83,1*0C
$GNGSA,A
5,196,13,195,18,,,,,,1.14,0.77,0.83,1*0C
$GNGSA,A,3,,,,,,,,,,,,,1.14,0.77,0.83,3*0C
$GNGSA,A,3,,,,
,1.14,0.77,0.83,6*09
$GPGSV,3,1,11,41,65,152,27,0
,1.14,0.77,0.83,6*09
$GPGSV,3,1,11,41,65,152,27,05,64,027,37,29,37,336,28,15,33,159,17,1*69
$GPGSV
196,28,073,37,13,24,118,22,195,22,068,35,18,21,283
196,28,073,37,13,24,118,22,195,22,068,35,18,21,283,24,1*6D
$GPGSV,3,3,11,20,,,26,23,,,23,12,,,24,1*
SV,1,1,00,7*73
$GIGSV,1,1,00,1*7D
$GNGLL,1831.06
SV,1,1,00,7*73
$GIGSV,1,1,00,1*7D
$GNGLL,1831.064202,N,07348.920436,E,152409.000,A,A*47
$PQTMANTE
S,1,0,1*4F

$GNRMC,152410.000,A,1831.064214,N,07348.920442,E,0
$GNRMC,152410.000,A,1831.064214,N,07348.920442,E,0.17,45.59,210125,,,A,V*38
$GNGGA,152410.000,1831.
,07348.920442,E,1,13,0.77,599.618,M,-64.657,M,,*5D
,07348.920442,E,1,13,0.77,599.618,M,-64.657,M,,*5D
$GNVTG,45.59,T,,M,0.17,N,0.31,K,A*1A
$GNGSA,A,3
5,196,13,195,18,,,,,,1.14,0.77,0.83,1*0C
$GNGSA,A
5,196,13,195,18,,,,,,1.14,0.77,0.83,1*0C
$GNGSA,A,3,,,,,,,,,,,,,1.14,0.77,0.83,3*0C
$GNGSA,A,3,,,,
,1.14,0.77,0.83,6*09
$GPGSV,3,1,11,41,65,152,27,0
,1.14,0.77,0.83,6*09
$GPGSV,3,1,11,41,65,152,27,05,64,027,37,29,37,336,28,15,33,159,17,1*69
$GPGSV
196,28,073,37,13,24,118,23,195,22,068,35,18,21,283
196,28,073,37,13,24,118,23,195,22,068,35,18,21,283,24,1*6C
$GPGSV,3,3,11,20,,,26,23,,,23,12,,,24,1*
SV,1,1,00,7*73
$GIGSV,1,1,00,1*7D
$GNGLL,1831.06
SV,1,1,00,7*73
$GIGSV,1,1,00,1*7D
$GNGLL,1831.064214,N,07348.920442,E,152410.000,A,A*4B
$PQTMANTE
S,1,0,1*4F

$GNRMC,152411.000,A,1831.064208,N,07348.920472,E,0
$GNRMC,152411.000,A,1831.064208,N,07348.920472,E,0.16,45.59,210125,,,A,V*36
$GNGGA,152411.000,1831.
,07348.920472,E,1,13,0.77,599.639,M,-64.657,M,,*51
,07348.920472,E,1,13,0.77,599.639,M,-64.657,M,,*51
$GNVTG,45.59,T,,M,0.16,N,0.29,K,A*12
$GNGSA,A,3
5,196,13,195,18,,,,,,1.14,0.77,0.83,1*0C
$GNGSA,A
5,196,13,195,18,,,,,,1.14,0.77,0.83,1*0C
$GNGSA,A,3,,,,,,,,,,,,,1.14,0.77,0.83,3*0C
$GNGSA,A,3,,,,
,1.14,0.77,0.83,6*09
$GPGSV,3,1,11,41,65,152,27,0
,1.14,0.77,0.83,6*09
$GPGSV,3,1,11,41,65,152,27,05,64,027,37,29,37,336,28,15,33,159,19,1*67
$GPGSV
196,28,073,37,13,24,118,23,195,22,068,34,18,21,283
196,28,073,37,13,24,118,23,195,22,068,34,18,21,283,24,1*6D
$GPGSV,3,3,11,20,,,27,23,,,22,12,,,24,1*
SV,1,1,00,7*73
$GIGSV,1,1,00,1*7D
$GNGLL,1831.06
SV,1,1,00,7*73
$GIGSV,1,1,00,1*7D
$GNGLL,1831.064208,N,07348.920472,E,152411.000,A,A*44
$PQTMANTE
S,1,0,1*4F

$GNRMC,152412.000,A,1831.064214,N,07348.920490,E,0
$GNRMC,152412.000,A,1831.064214,N,07348.920490,E,0.15,45.59,210125,,,A,V*37
$GNGGA,152412.000,1831.
,07348.920490,E,1,13,0.77,599.671,M,-64.657,M,,*5F
,07348.920490,E,1,13,0.77,599.671,M,-64.657,M,,*5F
$GNVTG,45.59,T,,M,0.15,N,0.28,K,A*10
$GNGSA,A,3
5,196,13,195,18,,,,,,1.14,0.77,0.83,1*0C
$GNGSA,A
5,196,13,195,18,,,,,,1.14,0.77,0.83,1*0C
$GNGSA,A,3,,,,,,,,,,,,,1.14,0.77,0.83,3*0C
$GNGSA,A,3,,,,
,1.14,0.77,0.83,6*09
$GPGSV,3,1,11,41,65,152,27,0
,1.14,0.77,0.83,6*09
$GPGSV,3,1,11,41,65,152,27,05,64,027,37,29,37,336,28,15,33,159,19,1*67
$GPGSV
196,28,073,37,13,24,118,24,195,22,068,34,18,21,283
196,28,073,37,13,24,118,24,195,22,068,34,18,21,283,24,1*6A
$GPGSV,3,3,11,20,,,28,23,,,22,12,,,24,1*
SV,1,1,00,7*73
$GIGSV,1,1,00,1*7D
$GNGLL,1831.06
SV,1,1,00,7*73
$GIGSV,1,1,00,1*7D
$GNGLL,1831.064214,N,07348.920490,E,152412.000,A,A*46
$PQTMANTE
S,1,0,1*4F

$GNRMC,152413.000,A,1831.064238,N,07348.920490,E,0
$GNRMC,152413.000,A,1831.064238,N,07348.920490,E,0.47,45.59,210125,,,A,V*3F
$GNGGA,152413.000,1831.
,07348.920490,E,1,13,0.77,599.684,M,-64.657,M,,*5A
,07348.920490,E,1,13,0.77,599.684,M,-64.657,M,,*5A
$GNVTG,45.59,T,,M,0.47,N,0.86,K,A*13
$GNGSA,A,3
5,196,13,195,18,,,,,,1.14,0.77,0.83,1*0C
$GNGSA,A
5,196,13,195,18,,,,,,1.14,0.77,0.83,1*0C
$GNGSA,A,3,,,,,,,,,,,,,1.14,0.77,0.83,3*0C
$GNGSA,A,3,,,,
,1.14,0.77,0.83,6*09
$GPGSV,3,1,11,41,65,152,27,0
,1.14,0.77,0.83,6*09
$GPGSV,3,1,11,41,65,152,27,05,64,027,37,29,37,336,29,15,33,159,20,1*6C
$GPGSV
196,28,073,37,13,24,118,25,195,22,068,34,18,21,283
196,28,073,37,13,24,118,25,195,22,068,34,18,21,283,24,1*6B
$GPGSV,3,3,11,20,,,28,23,,,23,12,,,25,1*
SV,1,1,00,7*73
$GIGSV,1,1,00,1*7D
$GNGLL,1831.06
SV,1,1,00,7*73
$GIGSV,1,1,00,1*7D
$GNGLL,1831.064238,N,07348.920490,E,152413.000,A,A*49
$PQTMANTE
S,1,0,1*4F

$GNRMC,152414.000,A,1831.064256,N,07348.920454,E,0
$GNRMC,152414.000,A,1831.064256,N,07348.920454,E,0.29,45.59,210125,,,A,V*30
$GNGGA,152414.000,1831.
,07348.920454,E,1,13,0.77,599.694,M,-64.657,M,,*5C
,07348.920454,E,1,13,0.77,599.694,M,-64.657,M,,*5C
$GNVTG,45.59,T,,M,0.29,N,0.53,K,A*13
$GNGSA,A,3
5,196,13,195,18,,,,,,1.14,0.77,0.83,1*0C
$GNGSA,A
5,196,13,195,18,,,,,,1.14,0.77,0.83,1*0C
$GNGSA,A,3,,,,,,,,,,,,,1.14,0.77,0.83,3*0C
$GNGSA,A,3,,,,
,1.14,0.77,0.83,6*09
$GPGSV,3,1,11,41,65,152,27,0
,1.14,0.77,0.83,6*09
$GPGSV,3,1,11,41,65,152,27,05,64,027,37,29,37,336,29,15,33,159,21,1*6D
$GPGSV
196,28,073,37,13,24,118,25,195,22,068,34,18,21,283
196,28,073,37,13,24,118,25,195,22,068,34,18,21,283,24,1*6B
$GPGSV,3,3,11,20,,,28,23,,,23,12,,,25,1*
SV,1,1,00,7*73
$GIGSV,1,1,00,1*7D
$GNGLL,1831.06
SV,1,1,00,7*73
$GIGSV,1,1,00,1*7D
$GNGLL,1831.064256,N,07348.920454,E,152414.000,A,A*4E
$PQTMANTE
S,1,0,1*4F

$GNRMC,152415.000,A,1831.064292,N,07348.920430,E,0
$GNRMC,152415.000,A,1831.064292,N,07348.920430,E,0.10,45.59,210125,,,A,V*31
$GNGGA,152415.000,1831.
,07348.920430,E,1,15,0.74,599.689,M,-64.657,M,,*5E
,07348.920430,E,1,15,0.74,599.689,M,-64.657,M,,*5E
$GNVTG,45.59,T,,M,0.10,N,0.19,K,A*17
$GNGSA,A,3
5,196,13,195,18,,,,,,1.10,0.74,0.81,1*09
$GNGSA,A
5,196,13,195,18,,,,,,1.10,0.74,0.81,1*09
$GNGSA,A,3,,,,,,,,,,,,,1.10,0.74,0.81,3*09
$GNGSA,A,3,,,,
,1.10,0.74,0.81,6*0C
$GPGSV,3,1,11,41,65,152,27,0
,1.10,0.74,0.81,6*0C
$GPGSV,3,1,11,41,65,152,27,05,64,027,37,29,37,336,29,15,33,159,21,1*6D
$GPGSV
196,28,073,37,13,24,118,25,195,22,068,34,18,21,283
196,28,073,37,13,24,118,25,195,22,068,34,18,21,283,24,1*6B
$GPGSV,3,3,11,20,,,28,23,,,23,12,,,25,1*
SV,1,1,00,7*73
$GIGSV,1,1,00,1*7D
$GNGLL,1831.06
SV,1,1,00,7*73
$GIGSV,1,1,00,1*7D
$GNGLL,1831.064292,N,07348.920430,E,152415.000,A,A*45
$PQTMANTE
S,1,0,1*4F

$GNRMC,152416.000,A,1831.064184,N,07348.920466,E,0
$GNRMC,152416.000,A,1831.064184,N,07348.920466,E,0.12,45.59,210125,,,A,V*37
$GNGGA,152416.000,1831.
,07348.920466,E,1,15,0.74,599.693,M,-64.657,M,,*51
,07348.920466,E,1,15,0.74,599.693,M,-64.657,M,,*51
$GNVTG,45.59,T,,M,0.12,N,0.23,K,A*1C
$GNGSA,A,3
5,196,13,195,18,,,,,,1.10,0.74,0.81,1*09
$GNGSA,A
5,196,13,195,18,,,,,,1.10,0.74,0.81,1*09
$GNGSA,A,3,,,,,,,,,,,,,1.10,0.74,0.81,3*09
$GNGSA,A,3,,,,
,1.10,0.74,0.81,6*0C
$GPGSV,3,1,11,41,65,152,27,0
,1.10,0.74,0.81,6*0C
$GPGSV,3,1,11,41,65,152,27,05,64,027,36,29,37,336,29,15,33,159,22,1*6F
$GPGSV
196,28,073,38,13,24,118,25,195,22,068,34,18,21,283
196,28,073,38,13,24,118,25,195,22,068,34,18,21,283,24,1*64
$GPGSV,3,3,11,12,,,25,23,,,23,20,,,29,1*
SV,1,1,00,7*73
$GIGSV,1,1,00,1*7D
$GNGLL,1831.06
SV,1,1,00,7*73
$GIGSV,1,1,00,1*7D
$GNGLL,1831.064184,N,07348.920466,E,152416.000,A,A*41
$PQTMANTE
S,1,0,1*4F

$GNRMC,152417.000,A,1831.064274,N,07348.920412,E,0
$GNRMC,152417.000,A,1831.064274,N,07348.920412,E,0.30,45.59,210125,,,A,V*39
$GNGGA,152417.000,1831.
,07348.920412,E,1,15,0.74,599.690,M,-64.657,M,,*5C
,07348.920412,E,1,15,0.74,599.690,M,-64.657,M,,*5C
$GNVTG,45.59,T,,M,0.30,N,0.55,K,A*1D
$GNGSA,A,3
5,196,13,195,18,,,,,,1.10,0.74,0.81,1*09
$GNGSA,A
5,196,13,195,18,,,,,,1.10,0.74,0.81,1*09
$GNGSA,A,3,,,,,,,,,,,,,1.10,0.74,0.81,3*09
$GNGSA,A,3,,,,
,1.10,0.74,0.81,6*0C
$GPGSV,3,1,11,41,65,152,28,0
,1.10,0.74,0.81,6*0C
$GPGSV,3,1,11,41,65,152,28,05,64,027,36,29,37,336,29,15,33,159,24,1*66
$GPGSV
196,28,073,37,13,24,118,27,195,22,068,33,18,21,283
196,28,073,37,13,24,118,27,195,22,068,33,18,21,283,25,1*6F
$GPGSV,3,3,11,12,,,24,23,,,22,20,,,28,1*
SV,1,1,00,7*73
$GIGSV,1,1,00,1*7D
$GNGLL,1831.06
SV,1,1,00,7*73
$GIGSV,1,1,00,1*7D
$GNGLL,1831.064274,N,07348.920412,E,152417.000,A,A*4F
$PQTMANTE
S,1,0,1*4F

$GNRMC,152418.000,A,1831.064256,N,07348.920460,E,0
$GNRMC,152418.000,A,1831.064256,N,07348.920460,E,0.24,45.59,210125,,,A,V*36
$GNGGA,152418.000,1831.
,07348.920460,E,1,15,0.75,599.711,M,-64.657,M,,*5F
,07348.920460,E,1,15,0.75,599.711,M,-64.657,M,,*5F
$GNVTG,45.59,T,,M,0.24,N,0.44,K,A*18
$GNGSA,A,3
5,196,13,195,18,,,,,,1.10,0.75,0.81,1*08
$GNGSA,A
5,196,13,195,18,,,,,,1.10,0.75,0.81,1*08
$GNGSA,A,3,,,,,,,,,,,,,1.10,0.75,0.81,3*08
$GNGSA,A,3,,,,
,1.10,0.75,0.81,6*0D
$GPGSV,3,1,11,41,65,152,28,0
,1.10,0.75,0.81,6*0D
$GPGSV,3,1,11,41,65,152,28,05,64,027,35,29,37,336,27,15,33,159,24,1*6B
$GPGSV
196,28,073,28,13,24,118,27,195,22,068,25,18,21,283
196,28,073,28,13,24,118,27,195,22,068,25,18,21,283,24,1*67
$GPGSV,3,3,11,12,,,22,23,,,21,20,,,20,1*
SV,1,1,00,7*73
$GIGSV,1,1,00,1*7D
$GNGLL,1831.06
SV,1,1,00,7*73
$GIGSV,1,1,00,1*7D
$GNGLL,1831.064256,N,07348.920460,E,152418.000,A,A*45
$PQTMANTE
S,1,0,1*4F

$GNRMC,152419.000,A,1831.064220,N,07348.920478,E,0
$GNRMC,152419.000,A,1831.064220,N,07348.920478,E,0.19,45.59,210125,,,A,V*31
$GNGGA,152419.000,1831.
,07348.920478,E,1,15,0.74,599.713,M,-64.657,M,,*55
,07348.920478,E,1,15,0.74,599.713,M,-64.657,M,,*55
$GNVTG,45.59,T,,M,0.19,N,0.35,K,A*10
$GNGSA,A,3
5,196,13,195,18,,,,,,1.10,0.74,0.81,1*09
$GNGSA,A
5,196,13,195,18,,,,,,1.10,0.74,0.81,1*09
$GNGSA,A,3,,,,,,,,,,,,,1.10,0.74,0.81,3*09
$GNGSA,A,3,,,,
,1.10,0.74,0.81,6*0C
$GPGSV,3,1,11,41,65,152,28,0
,1.10,0.74,0.81,6*0C
$GPGSV,3,1,11,41,65,152,28,05,64,027,34,29,37,336,28,15,33,159,23,1*62
$GPGSV
196,28,073,28,13,24,118,25,195,22,068,26,18,21,283
196,28,073,28,13,24,118,25,195,22,068,26,18,21,283,22,1*60
$GPGSV,3,3,11,12,,,21,23,,,19,20,,,22,1*
SV,1,1,00,7*73
$GIGSV,1,1,00,1*7D
$GNGLL,1831.06
SV,1,1,00,7*73
$GIGSV,1,1,00,1*7D
$GNGLL,1831.064220,N,07348.920478,E,152419.000,A,A*4C
$PQTMANTE
S,1,0,1*4F

$GNRMC,152420.000,A,1831.064172,N,07348.920490,E,0
$GNRMC,152420.000,A,1831.064172,N,07348.920490,E,0.17,45.59,210125,,,A,V*37
$GNGGA,152420.000,1831.
,07348.920490,E,1,15,0.74,599.708,M,-64.657,M,,*57
,07348.920490,E,1,15,0.74,599.708,M,-64.657,M,,*57
$GNVTG,45.59,T,,M,0.17,N,0.32,K,A*19
$GNGSA,A,3
5,196,13,195,18,,,,,,1.10,0.74,0.81,1*09
$GNGSA,A
5,196,13,195,18,,,,,,1.10,0.74,0.81,1*09
$GNGSA,A,3,,,,,,,,,,,,,1.10,0.74,0.81,3*09
$GNGSA,A,3,,,,
,1.10,0.74,0.81,6*0C
$GPGSV,3,1,11,41,65,152,27,0
,1.10,0.74,0.81,6*0C
$GPGSV,3,1,11,41,65,152,27,05,64,027,32,29,37,336,26,15,33,159,24,1*62
$GPGSV
196,28,073,27,13,24,118,26,195,22,068,26,18,21,283
196,28,073,27,13,24,118,26,195,22,068,26,18,21,283,23,1*6D
$GPGSV,3,3,11,12,,,20,23,,,19,20,,,22,1*
SV,1,1,00,7*73
$GIGSV,1,1,00,1*7D
$GNGLL,1831.06
SV,1,1,00,7*73
$GIGSV,1,1,00,1*7D
$GNGLL,1831.064172,N,07348.920490,E,152420.000,A,A*44
$PQTMANTE
S,1,0,1*4F

$GNRMC,152421.000,A,1831.064172,N,07348.920412,E,0
$GNRMC,152421.000,A,1831.064172,N,07348.920412,E,0.11,45.59,210125,,,A,V*3A
$GNGGA,152421.000,1831.
,07348.920412,E,1,15,0.74,599.714,M,-64.657,M,,*51
,07348.920412,E,1,15,0.74,599.714,M,-64.657,M,,*51
$GNVTG,45.59,T,,M,0.11,N,0.20,K,A*1C
$GNGSA,A,3
5,196,13,195,18,,,,,,1.10,0.74,0.81,1*09
$GNGSA,A
5,196,13,195,18,,,,,,1.10,0.74,0.81,1*09
$GNGSA,A,3,,,,,,,,,,,,,1.10,0.74,0.81,3*09
$GNGSA,A,3,,,,
,1.10,0.74,0.81,6*0C
$GPGSV,3,1,11,41,65,152,35,0
,1.10,0.74,0.81,6*0C
$GPGSV,3,1,11,41,65,152,35,05,64,027,40,29,37,336,28,15,33,159,25,1*6B
$GPGSV
196,28,073,34,13,24,118,33,195,22,068,24,18,21,283
196,28,073,34,13,24,118,33,195,22,068,24,18,21,283,23,1*69
$GPGSV,3,3,11,12,,,20,23,,,18,20,,,24,1*
SV,1,1,00,7*73
$GIGSV,1,1,00,1*7D
$GNGLL,1831.06
SV,1,1,00,7*73
$GIGSV,1,1,00,1*7D
$GNGLL,1831.064172,N,07348.920412,E,152421.000,A,A*4F
$PQTMANTE
S,1,0,1*4F

$GNRMC,152422.000,A,1831.064010,N,07348.920364,E,0
$GNRMC,152422.000,A,1831.064010,N,07348.920364,E,0.23,45.59,210125,,,A,V*3B
$GNGGA,152422.000,1831.
,07348.920364,E,1,15,0.75,599.713,M,-64.657,M,,*57
,07348.920364,E,1,15,0.75,599.713,M,-64.657,M,,*57
$GNVTG,45.59,T,,M,0.23,N,0.43,K,A*18
$GNGSA,A,3
5,196,13,195,18,,,,,,1.10,0.75,0.81,1*08
$GNGSA,A
5,196,13,195,18,,,,,,1.10,0.75,0.81,1*08
$GNGSA,A,3,,,,,,,,,,,,,1.10,0.75,0.81,3*08
$GNGSA,A,3,,,,
,1.10,0.75,0.81,6*0D
$GPGSV,3,1,11,41,65,152,34,0
,1.10,0.75,0.81,6*0D
$GPGSV,3,1,11,41,65,152,34,05,64,027,39,29,37,336,30,15,33,159,26,1*6E
$GPGSV
196,28,073,23,13,24,118,33,195,22,068,25,18,21,283
196,28,073,23,13,24,118,33,195,22,068,25,18,21,283,24,1*69
$GPGSV,3,3,11,12,,,20,23,,,18,20,,,23,1*
SV,1,1,00,7*73
$GIGSV,1,1,00,1*7D
$GNGLL,1831.06
SV,1,1,00,7*73
$GIGSV,1,1,00,1*7D
$GNGLL,1831.064010,N,07348.920364,E,152422.000,A,A*4F
$PQTMANTE
S,1,0,1*4F

$GNRMC,152423.000,A,1831.064124,N,07348.920394,E,0
$GNRMC,152423.000,A,1831.064124,N,07348.920394,E,0.28,45.59,210125,,,A,V*38
$GNGGA,152423.000,1831.
,07348.920394,E,1,15,0.74,599.717,M,-64.657,M,,*5A
,07348.920394,E,1,15,0.74,599.717,M,-64.657,M,,*5A
$GNVTG,45.59,T,,M,0.28,N,0.51,K,A*10
$GNGSA,A,3
5,196,13,195,18,,,,,,1.10,0.74,0.81,1*09
$GNGSA,A
5,196,13,195,18,,,,,,1.10,0.74,0.81,1*09
$GNGSA,A,3,,,,,,,,,,,,,1.10,0.74,0.81,3*09
$GNGSA,A,3,,,,
,1.10,0.74,0.81,6*0C
$GPGSV,3,1,11,41,65,152,33,0
,1.10,0.74,0.81,6*0C
$GPGSV,3,1,11,41,65,152,33,05,64,027,38,29,37,336,30,15,33,159,26,1*68
$GPGSV
196,28,073,24,13,24,118,32,195,22,068,24,18,21,283
196,28,073,24,13,24,118,32,195,22,068,24,18,21,283,24,1*6E
$GPGSV,3,3,11,12,,,20,23,,,18,20,,,25,1*
SV,1,1,00,7*73
$GIGSV,1,1,00,1*7D
$GNGLL,1831.06
SV,1,1,00,7*73
$GIGSV,1,1,00,1*7D
$GNGLL,1831.064124,N,07348.920394,E,152423.000,A,A*47
$PQTMANTE
S,1,0,1*4F

$GNRMC,152424.000,A,1831.063992,N,07348.920370,E,0
$GNRMC,152424.000,A,1831.063992,N,07348.920370,E,0.36,45.59,210125,,,A,V*38
$GNGGA,152424.000,1831.
,07348.920370,E,1,15,0.74,599.723,M,-64.657,M,,*52
,07348.920370,E,1,15,0.74,599.723,M,-64.657,M,,*52
$GNVTG,45.59,T,,M,0.36,N,0.67,K,A*1A
$GNGSA,A,3
5,196,13,195,18,,,,,,1.10,0.74,0.81,1*09
$GNGSA,A
5,196,13,195,18,,,,,,1.10,0.74,0.81,1*09
$GNGSA,A,3,,,,,,,,,,,,,1.10,0.74,0.81,3*09
$GNGSA,A,3,,,,
,1.10,0.74,0.81,6*0C
$GPGSV,3,1,11,41,65,152,32,0
,1.10,0.74,0.81,6*0C
$GPGSV,3,1,11,41,65,152,32,05,64,027,37,29,37,336,30,15,33,159,26,1*66
$GPGSV
196,28,073,25,13,24,118,32,195,22,068,23,18,21,283
196,28,073,25,13,24,118,32,195,22,068,23,18,21,283,24,1*68
$GPGSV,3,3,11,12,,,20,23,,,17,20,,,26,1*
SV,1,1,00,7*73
$GIGSV,1,1,00,1*7D
$GNGLL,1831.06
SV,1,1,00,7*73
$GIGSV,1,1,00,1*7D
$GNGLL,1831.063992,N,07348.920370,E,152424.000,A,A*48
$PQTMANTE
S,1,0,1*4F

$GNRMC,152425.000,A,1831.063992,N,07348.920364,E,0
$GNRMC,152425.000,A,1831.063992,N,07348.920364,E,0.24,45.59,210125,,,A,V*3F
$GNGGA,152425.000,1831.
,07348.920364,E,1,15,0.74,599.728,M,-64.657,M,,*5D
,07348.920364,E,1,15,0.74,599.728,M,-64.657,M,,*5D
$GNVTG,45.59,T,,M,0.24,N,0.44,K,A*18
$GNGSA,A,3
5,196,13,195,18,,,,,,1.10,0.74,0.81,1*09
$GNGSA,A
5,196,13,195,18,,,,,,1.10,0.74,0.81,1*09
$GNGSA,A,3,,,,,,,,,,,,,1.10,0.74,0.81,3*09
$GNGSA,A,3,,,,
,1.10,0.74,0.81,6*0C
$GPGSV,3,1,11,41,65,152,31,0
,1.10,0.74,0.81,6*0C
$GPGSV,3,1,11,41,65,152,31,05,64,027,37,29,37,336,29,15,33,159,26,1*6D
$GPGSV
196,28,073,24,13,24,118,31,195,22,068,22,18,21,283
196,28,073,24,13,24,118,31,195,22,068,22,18,21,283,23,1*6C
$GPGSV,3,3,11,12,,,20,23,,,16,20,,,18,1*
SV,1,1,00,7*73
$GIGSV,1,1,00,1*7D
$GNGLL,1831.06
SV,1,1,00,7*73
$GIGSV,1,1,00,1*7D
$GNGLL,1831.063992,N,07348.920364,E,152425.000,A,A*4C
$PQTMANTE
S,1,0,1*4F

$GNRMC,152426.000,A,1831.063944,N,07348.920364,E,0
$GNRMC,152426.000,A,1831.063944,N,07348.920364,E,0.04,45.59,210125,,,A,V*35
$GNGGA,152426.000,1831.
,07348.920364,E,1,15,0.74,599.735,M,-64.657,M,,*59
,07348.920364,E,1,15,0.74,599.735,M,-64.657,M,,*59
$GNVTG,45.59,T,,M,0.04,N,0.08,K,A*12
$GNGSA,A,3
5,196,13,195,18,,,,,,1.10,0.74,0.81,1*09
$GNGSA,A
5,196,13,195,18,,,,,,1.10,0.74,0.81,1*09
$GNGSA,A,3,,,,,,,,,,,,,1.10,0.74,0.81,3*09
$GNGSA,A,3,,,,
,1.10,0.74,0.81,6*0C
$GPGSV,3,1,11,41,65,152,30,0
,1.10,0.74,0.81,6*0C
$GPGSV,3,1,11,41,65,152,30,05,64,027,37,29,37,336,29,15,33,159,24,1*6E
$GPGSV
196,28,073,25,13,24,118,31,195,22,068,23,18,21,283
196,28,073,25,13,24,118,31,195,22,068,23,18,21,283,22,1*6D
$GPGSV,3,3,11,12,,,19,23,,,16,20,,,18,1*
SV,1,1,00,7*73
$GIGSV,1,1,00,1*7D
$GNGLL,1831.06
SV,1,1,00,7*73
$GIGSV,1,1,00,1*7D
$GNGLL,1831.063944,N,07348.920364,E,152426.000,A,A*44
$PQTMANTE
S,1,0,1*4F

$GNRMC,152427.000,A,1831.064040,N,07348.920382,E,0
$GNRMC,152427.000,A,1831.064040,N,07348.920382,E,0.19,45.59,210125,,,A,V*3A
$GNGGA,152427.000,1831.
,07348.920382,E,1,15,0.74,599.728,M,-64.657,M,,*56
,07348.920382,E,1,15,0.74,599.728,M,-64.657,M,,*56
$GNVTG,45.59,T,,M,0.19,N,0.36,K,A*13
$GNGSA,A,3
5,196,13,195,18,,,,,,1.10,0.74,0.81,1*09
$GNGSA,A
5,196,13,195,18,,,,,,1.10,0.74,0.81,1*09
$GNGSA,A,3,,,,,,,,,,,,,1.10,0.74,0.81,3*09
$GNGSA,A,3,,,,
,1.10,0.74,0.81,6*0C
$GPGSV,3,1,11,41,65,152,29,0
,1.10,0.74,0.81,6*0C
$GPGSV,3,1,11,41,65,152,29,05,64,027,36,29,37,336,29,15,33,159,25,1*66
$GPGSV
196,28,073,24,13,24,118,32,195,22,068,24,18,21,283
196,28,073,24,13,24,118,32,195,22,068,24,18,21,283,20,1*6A
$GPGSV,3,3,11,12,,,18,23,,,15,20,,,17,1*
SV,1,1,00,7*73
$GIGSV,1,1,00,1*7D
$GNGLL,1831.06
SV,1,1,00,7*73
$GIGSV,1,1,00,1*7D
$GNGLL,1831.064040,N,07348.920382,E,152427.000,A,A*47
$PQTMANTE
S,1,0,1*4F

$GNRMC,152428.000,A,1831.064052,N,07348.920382,E,0
$GNRMC,152428.000,A,1831.064052,N,07348.920382,E,0.04,45.59,210125,,,A,V*3A
$GNGGA,152428.000,1831.
,07348.920382,E,1,15,0.74,599.730,M,-64.657,M,,*53
,07348.920382,E,1,15,0.74,599.730,M,-64.657,M,,*53
$GNVTG,45.59,T,,M,0.04,N,0.07,K,A*1D
$GNGSA,A,3
5,196,13,195,18,,,,,,1.10,0.74,0.81,1*09
$GNGSA,A
5,196,13,195,18,,,,,,1.10,0.74,0.81,1*09
$GNGSA,A,3,,,,,,,,,,,,,1.10,0.74,0.81,3*09
$GNGSA,A,3,,,,
,1.10,0.74,0.81,6*0C
$GPGSV,3,1,11,41,65,152,29,0
,1.10,0.74,0.81,6*0C
$GPGSV,3,1,11,41,65,152,29,05,64,027,37,29,37,336,29,15,33,159,25,1*67
$GPGSV
196,28,073,24,13,24,118,33,195,22,068,25,18,21,283
196,28,073,24,13,24,118,33,195,22,068,25,18,21,283,20,1*6A
$GPGSV,3,3,11,12,,,17,23,,,14,20,,,15,1*
SV,1,1,00,7*73
$GIGSV,1,1,00,1*7D
$GNGLL,1831.06
SV,1,1,00,7*73
$GIGSV,1,1,00,1*7D
$GNGLL,1831.064052,N,07348.920382,E,152428.000,A,A*4B
$PQTMANTE
S,1,0,1*4F

$GNRMC,152429.000,A,1831.064094,N,07348.920382,E,0
$GNRMC,152429.000,A,1831.064094,N,07348.920382,E,0.27,45.59,210125,,,A,V*30
$GNGGA,152429.000,1831.
,07348.920382,E,1,15,0.74,599.730,M,-64.657,M,,*58
,07348.920382,E,1,15,0.74,599.730,M,-64.657,M,,*58
$GNVTG,45.59,T,,M,0.27,N,0.50,K,A*1E
$GNGSA,A,3
5,196,13,195,18,,,,,,1.10,0.74,0.81,1*09
$GNGSA,A
5,196,13,195,18,,,,,,1.10,0.74,0.81,1*09
$GNGSA,A,3,,,,,,,,,,,,,1.10,0.74,0.81,3*09
$GNGSA,A,3,,,,
,1.10,0.74,0.81,6*0C
$GPGSV,3,1,11,41,65,152,29,0
,1.10,0.74,0.81,6*0C
$GPGSV,3,1,11,41,65,152,29,05,64,027,37,29,37,336,29,15,33,159,26,1*64
$GPGSV
196,28,073,24,13,24,118,33,195,22,068,26,18,21,283
196,28,073,24,13,24,118,33,195,22,068,26,18,21,283,20,1*69
$GPGSV,3,3,11,12,,,17,23,,,13,20,,,15,1*
SV,1,1,00,7*73
$GIGSV,1,1,00,1*7D
$GNGLL,1831.06
SV,1,1,00,7*73
$GIGSV,1,1,00,1*7D
$GNGLL,1831.064094,N,07348.920382,E,152429.000,A,A*40
$PQTMANTE
S,1,0,1*4F

$GNRMC,152430.000,A,1831.064064,N,07348.920412,E,0
$GNRMC,152430.000,A,1831.064064,N,07348.920412,E,0.16,45.59,210125,,,A,V*3B
$GNGGA,152430.000,1831.
,07348.920412,E,1,15,0.75,599.732,M,-64.657,M,,*52
,07348.920412,E,1,15,0.75,599.732,M,-64.657,M,,*52
$GNVTG,45.59,T,,M,0.16,N,0.29,K,A*12
$GNGSA,A,3
5,196,13,195,18,,,,,,1.10,0.75,0.81,1*08
$GNGSA,A
5,196,13,195,18,,,,,,1.10,0.75,0.81,1*08
$GNGSA,A,3,,,,,,,,,,,,,1.10,0.75,0.81,3*08
$GNGSA,A,3,,,,
,1.10,0.75,0.81,6*0D
$GPGSV,3,1,11,41,65,152,29,0
,1.10,0.75,0.81,6*0D
$GPGSV,3,1,11,41,65,152,29,05,64,027,38,29,37,336,29,15,33,159,26,1*6B
$GPGSV
196,28,073,27,13,24,118,32,195,22,068,26,18,21,283
196,28,073,27,13,24,118,32,195,22,068,26,18,21,283,21,1*6A
$GPGSV,3,3,11,12,,,17,23,,,14,20,,,14,1*
SV,1,1,00,7*73
$GIGSV,1,1,00,1*7D
$GNGLL,1831.06
SV,1,1,00,7*73
$GIGSV,1,1,00,1*7D
$GNGLL,1831.064064,N,07348.920412,E,152430.000,A,A*49
$PQTMANTE
S,1,0,1*4F

$GNRMC,152431.000,A,1831.064028,N,07348.920418,E,0
$GNRMC,152431.000,A,1831.064028,N,07348.920418,E,0.10,45.59,210125,,,A,V*3E
$GNGGA,152431.000,1831.
,07348.920418,E,1,15,0.75,599.741,M,-64.657,M,,*55
,07348.920418,E,1,15,0.75,599.741,M,-64.657,M,,*55
$GNVTG,45.59,T,,M,0.10,N,0.18,K,A*16
$GNGSA,A,3
5,196,13,195,18,,,,,,1.10,0.75,0.81,1*08
$GNGSA,A
5,196,13,195,18,,,,,,1.10,0.75,0.81,1*08
$GNGSA,A,3,,,,,,,,,,,,,1.10,0.75,0.81,3*08
$GNGSA,A,3,,,,
,1.10,0.75,0.81,6*0D
$GPGSV,3,1,11,41,65,152,29,0
,1.10,0.75,0.81,6*0D
$GPGSV,3,1,11,41,65,152,29,05,64,027,38,29,37,336,29,15,33,159,26,1*6B
$GPGSV
196,28,073,29,13,24,118,32,195,22,068,26,18,21,283
196,28,073,29,13,24,118,32,195,22,068,26,18,21,283,21,1*64
$GPGSV,3,3,11,12,,,17,23,,,14,20,,,14,1*
SV,1,1,00,7*73
$GIGSV,1,1,00,1*7D
$GNGLL,1831.06
SV,1,1,00,7*73
$GIGSV,1,1,00,1*7D
$GNGLL,1831.064028,N,07348.920418,E,152431.000,A,A*4A
$PQTMANTE
S,1,0,1*4F

$GNRMC,152432.000,A,1831.064028,N,07348.920442,E,0
$GNRMC,152432.000,A,1831.064028,N,07348.920442,E,0.09,45.59,210125,,,A,V*3A
$GNGGA,152432.000,1831.
,07348.920442,E,1,15,0.75,599.737,M,-64.657,M,,*58
,07348.920442,E,1,15,0.75,599.737,M,-64.657,M,,*58
$GNVTG,45.59,T,,M,0.09,N,0.17,K,A*11
$GNGSA,A,3
5,196,13,195,18,,,,,,1.10,0.75,0.81,1*08
$GNGSA,A
5,196,13,195,18,,,,,,1.10,0.75,0.81,1*08
$GNGSA,A,3,,,,,,,,,,,,,1.10,0.75,0.81,3*08
$GNGSA,A,3,,,,
,1.10,0.75,0.81,6*0D
$GPGSV,3,1,11,41,65,152,30,0
,1.10,0.75,0.81,6*0D
$GPGSV,3,1,11,41,65,152,30,05,64,027,38,29,37,336,29,15,33,159,26,1*63
$GPGSV
196,28,073,28,13,24,118,32,195,22,068,27,18,21,283
196,28,073,28,13,24,118,32,195,22,068,27,18,21,283,21,1*64
$GPGSV,3,3,11,12,,,17,23,,,13,20,,,14,1*
SV,1,1,00,7*73
$GIGSV,1,1,00,1*7D
$GNGLL,1831.06
SV,1,1,00,7*73
$GIGSV,1,1,00,1*7D
$GNGLL,1831.064028,N,07348.920442,E,152432.000,A,A*46
$PQTMANTE
S,1,0,1*4F

$GNRMC,152433.000,A,1831.064010,N,07348.920436,E,0
$GNRMC,152433.000,A,1831.064010,N,07348.920436,E,0.18,45.59,210125,,,A,V*33
$GNGGA,152433.000,1831.
,07348.920436,E,1,15,0.75,599.746,M,-64.657,M,,*57
,07348.920436,E,1,15,0.75,599.746,M,-64.657,M,,*57
$GNVTG,45.59,T,,M,0.18,N,0.33,K,A*17
$GNGSA,A,3
5,196,13,195,18,,,,,,1.10,0.75,0.81,1*08
$GNGSA,A
5,196,13,195,18,,,,,,1.10,0.75,0.81,1*08
$GNGSA,A,3,,,,,,,,,,,,,1.10,0.75,0.81,3*08
$GNGSA,A,3,,,,
,1.10,0.75,0.81,6*0D
$GPGSV,3,1,11,41,65,152,31,0
,1.10,0.75,0.81,6*0D
$GPGSV,3,1,11,41,65,152,31,05,64,027,38,29,37,336,30,15,33,159,26,1*6A
$GPGSV
196,28,073,26,13,24,118,32,195,22,068,27,18,21,283
196,28,073,26,13,24,118,32,195,22,068,27,18,21,283,21,1*6A
$GPGSV,3,3,11,12,,,17,23,,,13,20,,,14,1*
SV,1,1,00,7*73
$GIGSV,1,1,00,1*7D
$GNGLL,1831.06
SV,1,1,00,7*73
$GIGSV,1,1,00,1*7D
$GNGLL,1831.064010,N,07348.920436,E,152433.000,A,A*4F
$PQTMANTE
S,1,0,1*4F

$GNRMC,152434.000,A,1831.064046,N,07348.920454,E,0
$GNRMC,152434.000,A,1831.064046,N,07348.920454,E,0.14,45.59,210125,,,A,V*3F
$GNGGA,152434.000,1831.
,07348.920454,E,1,15,0.75,599.753,M,-64.657,M,,*53
,07348.920454,E,1,15,0.75,599.753,M,-64.657,M,,*53
$GNVTG,45.59,T,,M,0.14,N,0.27,K,A*1E
$GNGSA,A,3
5,196,13,195,18,,,,,,1.10,0.75,0.81,1*08
$GNGSA,A
5,196,13,195,18,,,,,,1.10,0.75,0.81,1*08
$GNGSA,A,3,,,,,,,,,,,,,1.10,0.75,0.81,3*08
$GNGSA,A,3,,,,
,1.10,0.75,0.81,6*0D
$GPGSV,3,1,11,41,65,152,31,0
,1.10,0.75,0.81,6*0D
$GPGSV,3,1,11,41,65,152,31,05,64,027,38,29,37,336,29,15,33,159,27,1*63
$GPGSV
196,28,073,24,13,24,118,32,195,22,068,27,18,21,283
196,28,073,24,13,24,118,32,195,22,068,27,18,21,283,22,1*6B
$GPGSV,3,3,11,12,,,17,23,,,13,20,,,14,1*
SV,1,1,00,7*73
$GIGSV,1,1,00,1*7D
$GNGLL,1831.06
SV,1,1,00,7*73
$GIGSV,1,1,00,1*7D
$GNGLL,1831.064046,N,07348.920454,E,152434.000,A,A*4F
$PQTMANTE
S,1,0,1*4F

$GNRMC,152435.000,A,1831.064058,N,07348.920430,E,0
$GNRMC,152435.000,A,1831.064058,N,07348.920430,E,0.19,45.59,210125,,,A,V*3E
$GNGGA,152435.000,1831.
,07348.920430,E,1,15,0.74,599.742,M,-64.657,M,,*5E
,07348.920430,E,1,15,0.74,599.742,M,-64.657,M,,*5E
$GNVTG,45.59,T,,M,0.19,N,0.35,K,A*10
$GNGSA,A,3
5,196,13,195,18,,,,,,1.10,0.74,0.81,1*09
$GNGSA,A
5,196,13,195,18,,,,,,1.10,0.74,0.81,1*09
$GNGSA,A,3,,,,,,,,,,,,,1.10,0.74,0.81,3*09
$GNGSA,A,3,,,,
,1.10,0.74,0.81,6*0C
$GPGSV,3,1,11,41,65,152,30,0
,1.10,0.74,0.81,6*0C
$GPGSV,3,1,11,41,65,152,30,05,64,027,38,29,37,336,29,15,33,159,26,1*63
$GPGSV
196,28,073,24,13,24,118,33,195,22,068,27,18,21,283
196,28,073,24,13,24,118,33,195,22,068,27,18,21,283,22,1*6A
$GPGSV,3,3,11,12,,,17,23,,,14,20,,,13,1*
SV,1,1,00,7*73
$GIGSV,1,1,00,1*7D
$GNGLL,1831.06
SV,1,1,00,7*73
$GIGSV,1,1,00,1*7D
$GNGLL,1831.064058,N,07348.920430,E,152435.000,A,A*43
$PQTMANTE
S,1,0,1*4F

$GNRMC,152436.000,A,1831.064082,N,07348.920430,E,0
$GNRMC,152436.000,A,1831.064082,N,07348.920430,E,0.07,45.59,210125,,,A,V*35
$GNGGA,152436.000,1831.
,07348.920430,E,1,15,0.74,599.769,M,-64.657,M,,*53
,07348.920430,E,1,15,0.74,599.769,M,-64.657,M,,*53
$GNVTG,45.59,T,,M,0.07,N,0.13,K,A*1B
$GNGSA,A,3
5,196,13,195,18,,,,,,1.10,0.74,0.81,1*09
$GNGSA,A
5,196,13,195,18,,,,,,1.10,0.74,0.81,1*09
$GNGSA,A,3,,,,,,,,,,,,,1.10,0.74,0.81,3*09
$GNGSA,A,3,,,,
,1.10,0.74,0.81,6*0C
$GPGSV,3,1,11,41,65,152,29,0
,1.10,0.74,0.81,6*0C
$GPGSV,3,1,11,41,65,152,29,05,64,027,38,29,37,336,28,15,33,159,26,1*6A
$GPGSV
196,28,073,24,13,24,118,34,195,22,068,26,18,21,283
196,28,073,24,13,24,118,34,195,22,068,26,18,21,283,22,1*6C
$GPGSV,3,3,11,12,,,17,23,,,14,20,,,14,1*
SV,1,1,00,7*73
$GIGSV,1,1,00,1*7D
$GNGLL,1831.06
SV,1,1,00,7*73
$GIGSV,1,1,00,1*7D
$GNGLL,1831.064082,N,07348.920430,E,152436.000,A,A*47
$PQTMANTE
S,1,0,1*4F

$GNRMC,152437.000,A,1831.064028,N,07348.920394,E,0
$GNRMC,152437.000,A,1831.064028,N,07348.920394,E,0.22,45.59,210125,,,A,V*3A
$GNGGA,152437.000,1831.
,07348.920394,E,1,15,0.75,599.772,M,-64.657,M,,*50
,07348.920394,E,1,15,0.75,599.772,M,-64.657,M,,*50
$GNVTG,45.59,T,,M,0.22,N,0.40,K,A*1A
$GNGSA,A,3
5,196,13,195,18,,,,,,1.10,0.75,0.81,1*08
$GNGSA,A
5,196,13,195,18,,,,,,1.10,0.75,0.81,1*08
$GNGSA,A,3,,,,,,,,,,,,,1.10,0.75,0.81,3*08
$GNGSA,A,3,,,,
,1.10,0.75,0.81,6*0D
$GPGSV,3,1,11,41,65,152,29,0
,1.10,0.75,0.81,6*0D
$GPGSV,3,1,11,41,65,152,29,05,64,027,38,29,37,336,28,15,33,159,25,1*69
$GPGSV
196,28,073,24,13,24,118,34,195,22,068,25,18,21,283
196,28,073,24,13,24,118,34,195,22,068,25,18,21,283,22,1*6F
$GPGSV,3,3,11,12,,,17,23,,,14,20,,,14,1*
SV,1,1,00,7*73
$GIGSV,1,1,00,1*7D
$GNGLL,1831.06
SV,1,1,00,7*73
$GIGSV,1,1,00,1*7D
$GNGLL,1831.064028,N,07348.920394,E,152437.000,A,A*4F
$PQTMANTE
S,1,0,1*4F

$GNRMC,152438.000,A,1831.064034,N,07348.920424,E,0
$GNRMC,152438.000,A,1831.064034,N,07348.920424,E,0.13,45.59,210125,,,A,V*36
$GNGGA,152438.000,1831.
,07348.920424,E,1,15,0.75,599.783,M,-64.657,M,,*50
,07348.920424,E,1,15,0.75,599.783,M,-64.657,M,,*50
$GNVTG,45.59,T,,M,0.13,N,0.23,K,A*1D
$GNGSA,A,3
5,196,13,195,18,,,,,,1.10,0.75,0.81,1*08
$GNGSA,A
5,196,13,195,18,,,,,,1.10,0.75,0.81,1*08
$GNGSA,A,3,,,,,,,,,,,,,1.10,0.75,0.81,3*08
$GNGSA,A,3,,,,
,1.10,0.75,0.81,6*0D
$GPGSV,3,1,11,41,65,152,30,0
,1.10,0.75,0.81,6*0D
$GPGSV,3,1,11,41,65,152,30,05,64,027,38,29,37,336,28,15,33,159,26,1*62
$GPGSV
196,28,073,25,13,24,118,35,195,22,068,25,18,21,283
196,28,073,25,13,24,118,35,195,22,068,25,18,21,283,22,1*6F
$GPGSV,3,3,11,12,,,17,23,,,14,20,,,14,1*
SV,1,1,00,7*73
$GIGSV,1,1,00,1*7D
$GNGLL,1831.06
SV,1,1,00,7*73
$GIGSV,1,1,00,1*7D
$GNGLL,1831.064034,N,07348.920424,E,152438.000,A,A*41
$PQTMANTE
S,1,0,1*4F

$GNRMC,152439.000,A,1831.063974,N,07348.920394,E,0
$GNRMC,152439.000,A,1831.063974,N,07348.920394,E,0.44,45.59,210125,,,A,V*33
$GNGGA,152439.000,1831.
,07348.920394,E,1,15,0.75,599.802,M,-64.657,M,,*51
,07348.920394,E,1,15,0.75,599.802,M,-64.657,M,,*51
$GNVTG,45.59,T,,M,0.44,N,0.82,K,A*14
$GNGSA,A,3
5,196,13,195,18,,,,,,1.10,0.75,0.81,1*08
$GNGSA,A
5,196,13,195,18,,,,,,1.10,0.75,0.81,1*08
$GNGSA,A,3,,,,,,,,,,,,,1.10,0.75,0.81,3*08
$GNGSA,A,3,,,,
,1.10,0.75,0.81,6*0D
$GPGSV,3,1,11,41,65,152,30,0
,1.10,0.75,0.81,6*0D
$GPGSV,3,1,11,41,65,152,30,05,64,027,38,29,37,336,28,15,33,159,26,1*62
$GPGSV
196,28,073,25,13,24,118,34,195,22,068,25,18,21,283
196,28,073,25,13,24,118,34,195,22,068,25,18,21,283,23,1*6F
$GPGSV,3,3,11,12,,,18,23,,,14,20,,,13,1*
SV,1,1,00,7*73
$GIGSV,1,1,00,1*7D
$GNGLL,1831.06
SV,1,1,00,7*73
$GIGSV,1,1,00,1*7D
$GNGLL,1831.063974,N,07348.920394,E,152439.000,A,A*46
$PQTMANTE
S,1,0,1*4F

$GNRMC,152440.000,A,1831.063914,N,07348.920412,E,0
$GNRMC,152440.000,A,1831.063914,N,07348.920412,E,0.23,45.59,210125,,,A,V*33
$GNGGA,152440.000,1831.
,07348.920412,E,1,15,0.75,599.792,M,-64.657,M,,*56
,07348.920412,E,1,15,0.75,599.792,M,-64.657,M,,*56
$GNVTG,45.59,T,,M,0.23,N,0.42,K,A*19
$GNGSA,A,3
5,196,13,195,18,,,,,,1.10,0.75,0.81,1*08
$GNGSA,A
5,196,13,195,18,,,,,,1.10,0.75,0.81,1*08
$GNGSA,A,3,,,,,,,,,,,,,1.10,0.75,0.81,3*08
$GNGSA,A,3,,,,
,1.10,0.75,0.81,6*0D
$GPGSV,3,1,11,41,65,152,30,0
,1.10,0.75,0.81,6*0D
$GPGSV,3,1,11,41,65,152,30,05,64,027,38,29,37,336,29,15,33,159,26,1*63
$GPGSV
196,28,073,24,13,24,118,33,195,22,068,25,18,21,283
196,28,073,24,13,24,118,33,195,22,068,25,18,21,283,23,1*69
$GPGSV,3,3,11,12,,,18,23,,,13,20,,,14,1*
SV,1,1,00,7*73
$GIGSV,1,1,00,1*7D
$GNGLL,1831.06
SV,1,1,00,7*73
$GIGSV,1,1,00,1*7D
$GNGLL,1831.063914,N,07348.920412,E,152440.000,A,A*47
$PQTMANTE
S,1,0,1*4F

$GNRMC,152441.000,A,1831.063854,N,07348.920406,E,0
$GNRMC,152441.000,A,1831.063854,N,07348.920406,E,0.25,45.59,210125,,,A,V*34
$GNGGA,152441.000,1831.
,07348.920406,E,1,15,0.75,599.794,M,-64.657,M,,*51
,07348.920406,E,1,15,0.75,599.794,M,-64.657,M,,*51
$GNVTG,45.59,T,,M,0.25,N,0.46,K,A*1B
$GNGSA,A,3
5,196,13,195,18,,,,,,1.10,0.75,0.81,1*08
$GNGSA,A
5,196,13,195,18,,,,,,1.10,0.75,0.81,1*08
$GNGSA,A,3,,,,,,,,,,,,,1.10,0.75,0.81,3*08
$GNGSA,A,3,,,,
,1.10,0.75,0.81,6*0D
$GPGSV,3,1,11,41,65,152,30,0
,1.10,0.75,0.81,6*0D
$GPGSV,3,1,11,41,65,152,30,05,64,027,38,29,37,336,29,15,33,159,25,1*60
$GPGSV
196,28,073,23,13,24,118,33,195,22,068,25,18,21,283
196,28,073,23,13,24,118,33,195,22,068,25,18,21,283,23,1*6E
$GPGSV,3,3,11,12,,,19,23,,,12,20,,,14,1*
SV,1,1,00,7*73
$GIGSV,1,1,00,1*7D
$GNGLL,1831.06
SV,1,1,00,7*73
$GIGSV,1,1,00,1*7D
$GNGLL,1831.063854,N,07348.920406,E,152441.000,A,A*46
$PQTMANTE
S,1,0,1*4F

$GNRMC,152442.000,A,1831.063824,N,07348.920418,E,0
$GNRMC,152442.000,A,1831.063824,N,07348.920418,E,0.32,45.59,210125,,,A,V*39
$GNGGA,152442.000,1831.
,07348.920418,E,1,15,0.75,599.770,M,-64.657,M,,*50
,07348.920418,E,1,15,0.75,599.770,M,-64.657,M,,*50
$GNVTG,45.59,T,,M,0.32,N,0.59,K,A*13
$GNGSA,A,3
5,196,13,195,18,,,,,,1.10,0.75,0.81,1*08
$GNGSA,A
5,196,13,195,18,,,,,,1.10,0.75,0.81,1*08
$GNGSA,A,3,,,,,,,,,,,,,1.10,0.75,0.81,3*08
$GNGSA,A,3,,,,
,1.10,0.75,0.81,6*0D
$GPGSV,3,1,11,41,65,152,30,0
,1.10,0.75,0.81,6*0D
$GPGSV,3,1,11,41,65,152,30,05,64,027,38,29,37,336,29,15,33,159,24,1*61
$GPGSV
196,28,073,23,13,24,118,33,195,22,068,25,18,21,283
196,28,073,23,13,24,118,33,195,22,068,25,18,21,283,23,1*6E
$GPGSV,3,3,11,12,,,19,23,,,12,20,,,14,1*
SV,1,1,00,7*73
$GIGSV,1,1,00,1*7D
$GNGLL,1831.06
SV,1,1,00,7*73
$GIGSV,1,1,00,1*7D
$GNGLL,1831.063824,N,07348.920418,E,152442.000,A,A*4D
$PQTMANTE
S,1,0,1*4F

$GNRMC,152443.000,A,1831.063776,N,07348.920424,E,0
$GNRMC,152443.000,A,1831.063776,N,07348.920424,E,0.28,45.59,210125,,,A,V*34
$GNGGA,152443.000,1831.
,07348.920424,E,1,15,0.75,599.768,M,-64.657,M,,*5F
,07348.920424,E,1,15,0.75,599.768,M,-64.657,M,,*5F
$GNVTG,45.59,T,,M,0.28,N,0.52,K,A*13
$GNGSA,A,3
5,196,13,195,18,,,,,,1.10,0.75,0.81,1*08
$GNGSA,A
5,196,13,195,18,,,,,,1.10,0.75,0.81,1*08
$GNGSA,A,3,,,,,,,,,,,,,1.10,0.75,0.81,3*08
$GNGSA,A,3,,,,
,1.10,0.75,0.81,6*0D
$GPGSV,3,1,11,41,65,152,29,0
,1.10,0.75,0.81,6*0D
$GPGSV,3,1,11,41,65,152,29,05,64,027,38,29,37,336,29,15,33,159,25,1*68
$GPGSV
196,28,073,23,13,24,118,34,195,22,068,24,18,21,283
196,28,073,23,13,24,118,34,195,22,068,24,18,21,283,23,1*68
$GPGSV,3,3,11,12,,,20,23,,,12,20,,,15,1*
SV,1,1,00,7*73
$GIGSV,1,1,00,1*7D
$GNGLL,1831.06
SV,1,1,00,7*73
$GIGSV,1,1,00,1*7D
$GNGLL,1831.063776,N,07348.920424,E,152443.000,A,A*4B
$PQTMANTE
S,1,0,1*4F

$GNRMC,152444.000,A,1831.063734,N,07348.920400,E,0
$GNRMC,152444.000,A,1831.063734,N,07348.920400,E,0.17,45.59,210125,,,A,V*3F
$GNGGA,152444.000,1831.
,07348.920400,E,1,15,0.75,599.737,M,-64.657,M,,*52
,07348.920400,E,1,15,0.75,599.737,M,-64.657,M,,*52
$GNVTG,45.59,T,,M,0.17,N,0.32,K,A*19
$GNGSA,A,3
5,196,13,195,18,,,,,,1.10,0.75,0.81,1*08
$GNGSA,A
5,196,13,195,18,,,,,,1.10,0.75,0.81,1*08
$GNGSA,A,3,,,,,,,,,,,,,1.10,0.75,0.81,3*08
$GNGSA,A,3,,,,
,1.10,0.75,0.81,6*0D
$GPGSV,3,1,11,41,65,152,29,0
,1.10,0.75,0.81,6*0D
$GPGSV,3,1,11,41,65,152,29,05,64,027,39,29,37,336,29,15,33,159,26,1*6A
$GPGSV
196,28,073,23,13,24,118,34,195,22,068,25,18,21,283
196,28,073,23,13,24,118,34,195,22,068,25,18,21,283,23,1*69
$GPGSV,3,3,11,20,,,15,23,,,13,12,,,20,1*
SV,1,1,00,7*73
$GIGSV,1,1,01,02,,,29,1*75
$GNGLL
SV,1,1,00,7*73
$GIGSV,1,1,01,02,,,29,1*75
$GNGLL,1831.063734,N,07348.920400,E,152444.000,A,A*4C
$
NNASTATUS,1,0,1*4F

$GNRMC,152445.000,A,1831.063710,N,07348.920382,E,0
$GNRMC,152445.000,A,1831.063710,N,07348.920382,E,0.14,45.59,210125,,,A,V*36
$GNGGA,152445.000,1831.
,07348.920382,E,1,16,0.72,599.712,M,-64.657,M,,*5B
,07348.920382,E,1,16,0.72,599.712,M,-64.657,M,,*5B
$GNVTG,45.59,T,,M,0.14,N,0.26,K,A*1F
$GNGSA,A,3
5,196,13,195,18,,,,,,1.07,0.72,0.79,1*0E
$GNGSA,A
5,196,13,195,18,,,,,,1.07,0.72,0.79,1*0E
$GNGSA,A,3,,,,,,,,,,,,,1.07,0.72,0.79,3*0E
$GNGSA,A,3,,,,
,1.07,0.72,0.79,6*0B
$GPGSV,3,1,11,41,65,152,29,0
,1.07,0.72,0.79,6*0B
$GPGSV,3,1,11,41,65,152,29,05,64,027,39,29,37,336,29,15,33,159,26,1*6A
$GPGSV
196,28,073,23,13,24,118,33,195,22,068,23,18,21,283
196,28,073,23,13,24,118,33,195,22,068,23,18,21,283,24,1*6F
$GPGSV,3,3,11,20,,,15,23,,,13,12,,,20,1*
SV,1,1,00,7*73
$GIGSV,1,1,02,02,,,32,05,,,32,1*78
SV,1,1,00,7*73
$GIGSV,1,1,02,02,,,32,05,,,32,1*78
$GNGLL,1831.063710,N,07348.920382,E,152445.000,A
PQTMANTENNASTATUS,1,0,1*4F

$GNRMC,152446.000,A,1831.063722,N,07348.920358,E,0
$GNRMC,152446.000,A,1831.063722,N,07348.920358,E,0.15,45.59,210125,,,A,V*32
$GNGGA,152446.000,1831.
,07348.920358,E,1,16,0.72,599.711,M,-64.657,M,,*5D
,07348.920358,E,1,16,0.72,599.711,M,-64.657,M,,*5D
$GNVTG,45.59,T,,M,0.15,N,0.28,K,A*10
$GNGSA,A,3
5,196,13,195,18,,,,,,1.07,0.72,0.79,1*0E
$GNGSA,A
5,196,13,195,18,,,,,,1.07,0.72,0.79,1*0E
$GNGSA,A,3,,,,,,,,,,,,,1.07,0.72,0.79,3*0E
$GNGSA,A,3,,,,
,1.07,0.72,0.79,6*0B
$GPGSV,3,1,12,41,65,152,28,0
,1.07,0.72,0.79,6*0B
$GPGSV,3,1,12,41,65,152,28,05,64,027,39,29,37,336,29,15,33,159,26,1*68
$GPGSV
196,28,073,22,13,24,118,33,195,22,068,24,18,21,283
196,28,073,22,13,24,118,33,195,22,068,24,18,21,283,25,1*6B
$GPGSV,3,3,12,199,,,20,20,,,16,23,,,13,1
*53
$GAGSV,1,1,00,7*73
$GIGSV,1,1,02,02,,,31,05,
*53
$GAGSV,1,1,00,7*73
$GIGSV,1,1,02,02,,,31,05,,,30,1*79
$GNGLL,1831.063722,N,07348.920358,E,152
A,A*43
$PQTMANTENNASTATUS,1,0,1*4F

$GNRMC,152447.000,A,1831.063704,N,07348.920346,E,0
$GNRMC,152447.000,A,1831.063704,N,07348.920346,E,0.08,45.59,210125,,,A,V*34
$GNGGA,152447.000,1831.
,07348.920346,E,1,16,0.72,599.706,M,-64.657,M,,*51
,07348.920346,E,1,16,0.72,599.706,M,-64.657,M,,*51
$GNVTG,45.59,T,,M,0.08,N,0.15,K,A*12
$GNGSA,A,3
5,196,13,195,18,,,,,,1.07,0.72,0.79,1*0E
$GNGSA,A
5,196,13,195,18,,,,,,1.07,0.72,0.79,1*0E
$GNGSA,A,3,,,,,,,,,,,,,1.07,0.72,0.79,3*0E
$GNGSA,A,3,,,,
,1.07,0.72,0.79,6*0B
$GPGSV,3,1,12,41,65,152,28,0
,1.07,0.72,0.79,6*0B
$GPGSV,3,1,12,41,65,152,28,05,64,027,39,29,37,336,30,15,33,159,27,1*61
$GPGSV
196,28,073,21,13,24,118,33,195,22,068,22,18,21,283
196,28,073,21,13,24,118,33,195,22,068,22,18,21,283,26,1*6D
$GPGSV,3,3,12,199,,,19,20,,,16,23,,,13,1
*59
$GAGSV,1,1,00,7*73
$GIGSV,1,1,02,02,,,32,05,
*59
$GAGSV,1,1,00,7*73
$GIGSV,1,1,02,02,,,32,05,,,32,1*78
$GNGLL,1831.063704,N,07348.920346,E,152
A,A*49
$PQTMANTENNASTATUS,1,0,1*4F

$GNRMC,152448.000,A,1831.063698,N,07348.920322,E,0
$GNRMC,152448.000,A,1831.063698,N,07348.920322,E,0.07,45.59,210125,,,A,V*32
$GNGGA,152448.000,1831.
,07348.920322,E,1,16,0.72,599.711,M,-64.657,M,,*5E
,07348.920322,E,1,16,0.72,599.711,M,-64.657,M,,*5E
$GNVTG,45.59,T,,M,0.07,N,0.13,K,A*1B
$GNGSA,A,3
5,196,13,195,18,,,,,,1.07,0.72,0.79,1*0E
$GNGSA,A
5,196,13,195,18,,,,,,1.07,0.72,0.79,1*0E
$GNGSA,A,3,,,,,,,,,,,,,1.07,0.72,0.79,3*0E
$GNGSA,A,3,,,,
,1.07,0.72,0.79,6*0B
$GPGSV,3,1,12,41,65,152,29,0
,1.07,0.72,0.79,6*0B
$GPGSV,3,1,12,41,65,152,29,05,64,027,39,29,37,336,30,15,33,159,28,1*6F
$GPGSV
196,28,073,22,13,24,118,33,195,22,068,23,18,21,283
196,28,073,22,13,24,118,33,195,22,068,23,18,21,283,26,1*6F
$GPGSV,3,3,12,199,,,19,20,,,16,23,,,13,1
*59
$GAGSV,1,1,00,7*73
$GIGSV,1,1,02,02,,,30,05,
*59
$GAGSV,1,1,00,7*73
$GIGSV,1,1,02,02,,,30,05,,,30,1*78
$GNGLL,1831.063698,N,07348.920322,E,152
A,A*40
$PQTMANTENNASTATUS,1,0,1*4F

$GNRMC,152449.000,A,1831.063686,N,07348.920328,E,0
$GNRMC,152449.000,A,1831.063686,N,07348.920328,E,0.10,45.59,210125,,,A,V*30
$GNGGA,152449.000,1831.
,07348.920328,E,1,16,0.72,599.706,M,-64.657,M,,*5C
,07348.920328,E,1,16,0.72,599.706,M,-64.657,M,,*5C
$GNVTG,45.59,T,,M,0.10,N,0.19,K,A*17
$GNGSA,A,3
5,196,13,195,18,,,,,,1.07,0.72,0.79,1*0E
$GNGSA,A
5,196,13,195,18,,,,,,1.07,0.72,0.79,1*0E
$GNGSA,A,3,,,,,,,,,,,,,1.07,0.72,0.79,3*0E
$GNGSA,A,3,,,,
,1.07,0.72,0.79,6*0B
$GPGSV,3,1,12,41,65,152,29,0
,1.07,0.72,0.79,6*0B
$GPGSV,3,1,12,41,65,152,29,05,64,027,39,29,37,336,31,15,33,159,28,1*6E
$GPGSV
196,28,073,22,13,24,118,33,195,22,068,23,18,21,283
196,28,073,22,13,24,118,33,195,22,068,23,18,21,283,26,1*6F
$GPGSV,3,3,12,199,,,18,20,,,15,23,,,13,1
*5B
$GAGSV,1,1,00,7*73
$GIGSV,1,1,02,02,,,32,05,
*5B
$GAGSV,1,1,00,7*73
$GIGSV,1,1,02,02,,,32,05,,,30,1*7A
$GNGLL,1831.063686,N,07348.920328,E,152
A,A*44
$PQTMANTENNASTATUS,1,0,1*4F

$GNRMC,152450.000,A,1831.063686,N,07348.920310,E,0
$GNRMC,152450.000,A,1831.063686,N,07348.920310,E,0.22,45.59,210125,,,A,V*32
$GNGGA,152450.000,1831.
,07348.920310,E,1,16,0.72,599.717,M,-64.657,M,,*5F
,07348.920310,E,1,16,0.72,599.717,M,-64.657,M,,*5F
$GNVTG,45.59,T,,M,0.22,N,0.41,K,A*1B
$GNGSA,A,3
5,196,13,195,18,,,,,,1.07,0.72,0.79,1*0E
$GNGSA,A
5,196,13,195,18,,,,,,1.07,0.72,0.79,1*0E
$GNGSA,A,3,,,,,,,,,,,,,1.07,0.72,0.79,3*0E
$GNGSA,A,3,,,,
,1.07,0.72,0.79,6*0B
$GPGSV,3,1,12,41,65,152,29,0
,1.07,0.72,0.79,6*0B
$GPGSV,3,1,12,41,65,152,29,05,64,027,39,29,37,336,31,15,33,159,28,1*6E
$GPGSV
196,28,073,22,13,24,118,33,195,22,068,23,18,21,283
196,28,073,22,13,24,118,33,195,22,068,23,18,21,283,26,1*6F
$GPGSV,3,3,12,199,,,18,20,,,16,23,,,12,1
*59
$GAGSV,1,1,00,7*73
$GIGSV,1,1,02,02,,,31,05,
*59
$GAGSV,1,1,00,7*73
$GIGSV,1,1,02,02,,,31,05,,,31,1*78
$GNGLL,1831.063686,N,07348.920310,E,152
A,A*47
$PQTMANTENNASTATUS,1,0,1*4F

$GNRMC,152451.000,A,1831.063656,N,07348.920340,E,0
$GNRMC,152451.000,A,1831.063656,N,07348.920340,E,0.41,45.59,210125,,,A,V*3E
$GNGGA,152451.000,1831.
,07348.920340,E,1,16,0.72,599.745,M,-64.657,M,,*51
,07348.920340,E,1,16,0.72,599.745,M,-64.657,M,,*51
$GNVTG,45.59,T,,M,0.41,N,0.76,K,A*1A
$GNGSA,A,3
5,196,13,195,18,,,,,,1.07,0.72,0.79,1*0E
$GNGSA,A
5,196,13,195,18,,,,,,1.07,0.72,0.79,1*0E
$GNGSA,A,3,,,,,,,,,,,,,1.07,0.72,0.79,3*0E
$GNGSA,A,3,,,,
,1.07,0.72,0.79,6*0B
$GPGSV,3,1,12,41,65,152,29,0
,1.07,0.72,0.79,6*0B
$GPGSV,3,1,12,41,65,152,29,05,64,027,39,29,37,336,31,15,33,159,29,1*6F
$GPGSV
196,28,073,21,13,24,118,34,195,22,068,23,18,21,283
196,28,073,21,13,24,118,34,195,22,068,23,18,21,283,26,1*6B
$GPGSV,3,3,12,199,,,18,20,,,16,23,,,11,1
*5A
$GAGSV,1,1,00,7*73
$GIGSV,1,1,02,02,,,32,05,
*5A
$GAGSV,1,1,00,7*73
$GIGSV,1,1,02,02,,,32,05,,,31,1*7B
$GNGLL,1831.063656,N,07348.920340,E,152
A,A*4E
$PQTMANTENNASTATUS,1,0,1*4F

$GNRMC,152452.000,A,1831.063590,N,07348.920340,E,0
$GNRMC,152452.000,A,1831.063590,N,07348.920340,E,0.15,45.59,210125,,,A,V*35
$GNGGA,152452.000,1831.
,07348.920340,E,1,16,0.72,599.695,M,-64.657,M,,*57
,07348.920340,E,1,16,0.72,599.695,M,-64.657,M,,*57
$GNVTG,45.59,T,,M,0.15,N,0.27,K,A*1F
$GNGSA,A,3
5,196,13,195,18,,,,,,1.07,0.72,0.79,1*0E
$GNGSA,A
5,196,13,195,18,,,,,,1.07,0.72,0.79,1*0E
$GNGSA,A,3,,,,,,,,,,,,,1.07,0.72,0.79,3*0E
$GNGSA,A,3,,,,
,1.07,0.72,0.79,6*0B
$GPGSV,3,1,12,41,65,152,29,0
,1.07,0.72,0.79,6*0B
$GPGSV,3,1,12,41,65,152,29,05,64,027,40,29,37,336,31,15,33,159,29,1*61
$GPGSV
196,28,073,20,13,24,118,34,195,22,068,23,18,21,283
196,28,073,20,13,24,118,34,195,22,068,23,18,21,283,26,1*6A
$GPGSV,3,3,12,199,,,18,20,,,16,23,,,12,1
*59
$GAGSV,1,1,00,7*73
$GIGSV,1,1,02,02,,,31,05,
*59
$GAGSV,1,1,00,7*73
$GIGSV,1,1,02,02,,,31,05,,,30,1*79
$GNGLL,1831.063590,N,07348.920340,E,152
A,A*44
$PQTMANTENNASTATUS,1,0,1*4F

$GNRMC,152453.000,A,1831.063548,N,07348.920334,E,0
$GNRMC,152453.000,A,1831.063548,N,07348.920334,E,0.02,45.59,210125,,,A,V*34
$GNGGA,152453.000,1831.
,07348.920334,E,1,16,0.72,599.686,M,-64.657,M,,*52
,07348.920334,E,1,16,0.72,599.686,M,-64.657,M,,*52
$GNVTG,45.59,T,,M,0.02,N,0.04,K,A*18
$GNGSA,A,3
5,196,13,195,18,,,,,,1.07,0.72,0.79,1*0E
$GNGSA,A
5,196,13,195,18,,,,,,1.07,0.72,0.79,1*0E
$GNGSA,A,3,,,,,,,,,,,,,1.07,0.72,0.79,3*0E
$GNGSA,A,3,,,,
,1.07,0.72,0.79,6*0B
$GPGSV,3,1,12,41,65,152,29,0
,1.07,0.72,0.79,6*0B
$GPGSV,3,1,12,41,65,152,29,05,64,027,40,29,37,336,32,15,33,159,29,1*62
$GPGSV
196,28,073,20,13,24,118,34,195,22,068,24,18,21,283
196,28,073,20,13,24,118,34,195,22,068,24,18,21,283,27,1*6C
$GPGSV,3,3,12,199,,,18,20,,,15,23,,,13,1
*5B
$GAGSV,1,1,00,7*73
$GIGSV,1,1,02,02,,,31,05,
*5B
$GAGSV,1,1,00,7*73
$GIGSV,1,1,02,02,,,31,05,,,29,1*71
$GNGLL,1831.063548,N,07348.920334,E,152
A,A*43
$PQTMANTENNASTATUS,1,0,1*4F

$GNRMC,152454.000,A,1831.063560,N,07348.920310,E,0
$GNRMC,152454.000,A,1831.063560,N,07348.920310,E,0.59,90.19,210125,,,A,V*3D
$GNGGA,152454.000,1831.
,07348.920310,E,1,16,0.72,599.682,M,-64.657,M,,*5D
,07348.920310,E,1,16,0.72,599.682,M,-64.657,M,,*5D
$GNVTG,90.19,T,,M,0.59,N,1.09,K,A*16
$GNGSA,A,3
5,196,13,195,18,,,,,,1.07,0.72,0.79,1*0E
$GNGSA,A
5,196,13,195,18,,,,,,1.07,0.72,0.79,1*0E
$GNGSA,A,3,,,,,,,,,,,,,1.07,0.72,0.79,3*0E
$GNGSA,A,3,,,,
,1.07,0.72,0.79,6*0B
$GPGSV,3,1,12,41,65,152,28,0
,1.07,0.72,0.79,6*0B
$GPGSV,3,1,12,41,65,152,28,05,64,027,39,29,37,336,31,15,33,159,28,1*6F
$GPGSV
196,28,073,20,13,24,118,33,195,22,068,23,18,21,283
196,28,073,20,13,24,118,33,195,22,068,23,18,21,283,26,1*6D
$GPGSV,3,3,12,199,,,18,20,,,15,23,,,13,1
*51
$GAGSV,1,1,00,7*73
$GIGSV,1,1,02,02,,,31,05,
*51
$GAGSV,1,1,00,7*73
$GIGSV,1,1,02,02,,,31,05,,,29,1*71
$GNGLL,1831.063560,N,07348.920310,E,152
A,A*48
$PQTMANTENNASTATUS,1,0,1*4F

$GNRMC,152455.000,A,1831.063602,N,07348.920454,E,0
$GNRMC,152455.000,A,1831.063602,N,07348.920454,E,0.55,90.19,210125,,,A,V*30
$GNGGA,152455.000,1831.
,07348.920454,E,1,16,0.72,599.702,M,-64.657,M,,*55
,07348.920454,E,1,16,0.72,599.702,M,-64.657,M,,*55
$GNVTG,90.19,T,,M,0.55,N,1.02,K,A*11
$GNGSA,A,3
5,196,13,195,18,,,,,,1.07,0.72,0.79,1*0E
$GNGSA,A
5,196,13,195,18,,,,,,1.07,0.72,0.79,1*0E
$GNGSA,A,3,,,,,,,,,,,,,1.07,0.72,0.79,3*0E
$GNGSA,A,3,,,,
,1.07,0.72,0.79,6*0B
$GPGSV,3,1,12,41,65,152,29,0
,1.07,0.72,0.79,6*0B
$GPGSV,3,1,12,41,65,152,29,05,64,027,39,29,37,336,32,15,33,159,29,1*6C
$GPGSV
196,28,073,20,13,24,118,34,195,22,068,23,18,21,283
196,28,073,20,13,24,118,34,195,22,068,23,18,21,283,26,1*6A
$GPGSV,3,3,12,199,,,18,20,,,15,23,,,14,1
*56
$GAGSV,1,1,00,7*73
$GIGSV,1,1,02,02,,,31,05,
*56
$GAGSV,1,1,00,7*73
$GIGSV,1,1,02,02,,,31,05,,,29,1*71
$GNGLL,1831.063602,N,07348.920454,E,152
A,A*49
$PQTMANTENNASTATUS,1,0,1*4F

$GNRMC,152456.000,A,1831.063590,N,07348.920526,E,0
$GNRMC,152456.000,A,1831.063590,N,07348.920526,E,0.34,90.19,210125,,,A,V*38
$GNGGA,152456.000,1831.
,07348.920526,E,1,16,0.72,599.724,M,-64.657,M,,*5E
,07348.920526,E,1,16,0.72,599.724,M,-64.657,M,,*5E
$GNVTG,90.19,T,,M,0.34,N,0.63,K,A*10
$GNGSA,A,3
5,196,13,195,18,,,,,,1.07,0.72,0.79,1*0E
$GNGSA,A
5,196,13,195,18,,,,,,1.07,0.72,0.79,1*0E
$GNGSA,A,3,,,,,,,,,,,,,1.07,0.72,0.79,3*0E
$GNGSA,A,3,,,,
,1.07,0.72,0.79,6*0B
$GPGSV,3,1,12,41,65,152,29,0
,1.07,0.72,0.79,6*0B
$GPGSV,3,1,12,41,65,152,29,05,64,027,39,29,37,336,32,15,33,159,30,1*64
$GPGSV
196,28,073,21,13,24,118,35,195,22,068,23,18,21,283
196,28,073,21,13,24,118,35,195,22,068,23,18,21,283,26,1*6A
$GPGSV,3,3,12,199,,,18,20,,,15,23,,,14,1
*56
$GAGSV,1,1,00,7*73
$GIGSV,1,1,02,02,,,31,05,
*56
$GAGSV,1,1,00,7*73
$GIGSV,1,1,02,02,,,31,05,,,29,1*71
$GNGLL,1831.063590,N,07348.920526,E,152
A,A*46
$PQTMANTENNASTATUS,1,0,1*4F

$GNRMC,152457.000,A,1831.063542,N,07348.920544,E,0
$GNRMC,152457.000,A,1831.063542,N,07348.920544,E,0.16,90.19,210125,,,A,V*32
$GNGGA,152457.000,1831.
,07348.920544,E,1,16,0.72,599.714,M,-64.657,M,,*57
,07348.920544,E,1,16,0.72,599.714,M,-64.657,M,,*57
$GNVTG,90.19,T,,M,0.16,N,0.29,K,A*1E
$GNGSA,A,3
5,196,13,195,18,,,,,,1.07,0.72,0.79,1*0E
$GNGSA,A
5,196,13,195,18,,,,,,1.07,0.72,0.79,1*0E
$GNGSA,A,3,,,,,,,,,,,,,1.07,0.72,0.79,3*0E
$GNGSA,A,3,,,,
,1.07,0.72,0.79,6*0B
$GPGSV,3,1,12,41,65,152,29,0
,1.07,0.72,0.79,6*0B
$GPGSV,3,1,12,41,65,152,29,05,64,027,40,29,37,336,32,15,33,159,30,1*6A
$GPGSV
196,28,073,21,13,24,118,35,195,22,068,23,18,21,283
196,28,073,21,13,24,118,35,195,22,068,23,18,21,283,25,1*69
$GPGSV,3,3,12,199,,,18,20,,,15,23,,,14,1
*56
$GAGSV,1,1,00,7*73
$GIGSV,1,1,02,02,,,31,05,
*56
$GAGSV,1,1,00,7*73
$GIGSV,1,1,02,02,,,31,05,,,29,1*71
$GNGLL,1831.063542,N,07348.920544,E,152
A,A*4C
$PQTMANTENNASTATUS,1,0,1*4F

$GNRMC,152458.000,A,1831.063482,N,07348.920526,E,0
$GNRMC,152458.000,A,1831.063482,N,07348.920526,E,0.15,90.19,210125,,,A,V*37
$GNGGA,152458.000,1831.
,07348.920526,E,1,16,0.72,599.728,M,-64.657,M,,*5E
,07348.920526,E,1,16,0.72,599.728,M,-64.657,M,,*5E
$GNVTG,90.19,T,,M,0.15,N,0.27,K,A*13
$GNGSA,A,3
5,196,13,195,18,,,,,,1.07,0.72,0.79,1*0E
$GNGSA,A
5,196,13,195,18,,,,,,1.07,0.72,0.79,1*0E
$GNGSA,A,3,,,,,,,,,,,,,1.07,0.72,0.79,3*0E
$GNGSA,A,3,,,,
,1.07,0.72,0.79,6*0B
$GPGSV,3,1,12,41,65,152,29,0
,1.07,0.72,0.79,6*0B
$GPGSV,3,1,12,41,65,152,29,05,64,027,40,29,37,336,32,15,33,159,30,1*6A
$GPGSV
196,28,073,20,13,24,118,34,195,22,068,23,18,21,283
196,28,073,20,13,24,118,34,195,22,068,23,18,21,283,25,1*69
$GPGSV,3,3,12,199,,,19,20,,,16,23,,,14,1
*54
$GAGSV,1,1,00,7*73
$GIGSV,1,1,02,02,,,31,05,
*54
$GAGSV,1,1,00,7*73
$GIGSV,1,1,02,02,,,31,05,,,29,1*71
$GNGLL,1831.063482,N,07348.920526,E,152
A,A*4A
$PQTMANTENNASTATUS,1,0,1*4F

$GNRMC,152459.000,A,1831.063332,N,07348.920538,E,0
$GNRMC,152459.000,A,1831.063332,N,07348.920538,E,0.28,90.19,210125,,,A,V*3B
$GNGGA,152459.000,1831.
,07348.920538,E,1,16,0.72,599.729,M,-64.657,M,,*5D
,07348.920538,E,1,16,0.72,599.729,M,-64.657,M,,*5D
$GNVTG,90.19,T,,M,0.28,N,0.52,K,A*1F
$GNGSA,A,3
5,196,13,195,18,,,,,,1.07,0.72,0.79,1*0E
$GNGSA,A
5,196,13,195,18,,,,,,1.07,0.72,0.79,1*0E
$GNGSA,A,3,,,,,,,,,,,,,1.07,0.72,0.79,3*0E
$GNGSA,A,3,,,,
,1.07,0.72,0.79,6*0B
$GPGSV,3,1,12,41,65,152,28,0
,1.07,0.72,0.79,6*0B
$GPGSV,3,1,12,41,65,152,28,05,64,027,40,29,37,336,32,15,33,159,29,1*63
$GPGSV
196,28,073,20,13,24,118,34,195,22,068,22,18,21,283
196,28,073,20,13,24,118,34,195,22,068,22,18,21,283,25,1*68
$GPGSV,3,3,12,199,,,20,20,,,16,23,,,14,1
*5E
$GAGSV,1,1,00,7*73
$GIGSV,1,1,02,02,,,31,05,
*5E
$GAGSV,1,1,00,7*73
$GIGSV,1,1,02,02,,,31,05,,,30,1*79
$GNGLL,1831.063332,N,07348.920538,E,152
A,A*48
$PQTMANTENNASTATUS,1,0,1*4F

$GNRMC,152500.000,A,1831.063404,N,07348.920544,E,0
$GNRMC,152500.000,A,1831.063404,N,07348.920544,E,0.15,90.19,210125,,,A,V*31
$GNGGA,152500.000,1831.
,07348.920544,E,1,16,0.72,599.723,M,-64.657,M,,*53
,07348.920544,E,1,16,0.72,599.723,M,-64.657,M,,*53
$GNVTG,90.19,T,,M,0.15,N,0.27,K,A*13
$GNGSA,A,3
5,196,13,195,18,,,,,,1.07,0.72,0.79,1*0E
$GNGSA,A
5,196,13,195,18,,,,,,1.07,0.72,0.79,1*0E
$GNGSA,A,3,,,,,,,,,,,,,1.07,0.72,0.79,3*0E
$GNGSA,A,3,,,,
,1.07,0.72,0.79,6*0B
$GPGSV,3,1,12,41,65,152,28,0
,1.07,0.72,0.79,6*0B
$GPGSV,3,1,12,41,65,152,28,05,64,027,40,29,37,336,32,15,33,159,30,1*6B
$GPGSV
196,28,073,20,13,24,118,33,195,22,068,21,18,21,283
196,28,073,20,13,24,118,33,195,22,068,21,18,21,283,25,1*6C
$GPGSV,3,3,12,199,,,21,20,,,17,23,,,13,1
*58
$GAGSV,1,1,00,7*73
$GIGSV,1,1,02,02,,,31,05,
*58
$GAGSV,1,1,00,7*73
$GIGSV,1,1,02,02,,,31,05,,,30,1*79
$GNGLL,1831.063404,N,07348.920544,E,152
A,A*4C
$PQTMANTENNASTATUS,1,0,1*4F

$GNRMC,152501.000,A,1831.063272,N,07348.920562,E,0
$GNRMC,152501.000,A,1831.063272,N,07348.920562,E,0.12,90.19,210125,,,A,V*34
$GNGGA,152501.000,1831.
,07348.920562,E,1,16,0.72,599.738,M,-64.657,M,,*5B
,07348.920562,E,1,16,0.72,599.738,M,-64.657,M,,*5B
$GNVTG,90.19,T,,M,0.12,N,0.22,K,A*11
$GNGSA,A,3
5,196,13,195,18,,,,,,1.07,0.72,0.79,1*0E
$GNGSA,A
5,196,13,195,18,,,,,,1.07,0.72,0.79,1*0E
$GNGSA,A,3,,,,,,,,,,,,,1.07,0.72,0.79,3*0E
$GNGSA,A,3,,,,
,1.07,0.72,0.79,6*0B
$GPGSV,3,1,12,41,65,152,29,0
,1.07,0.72,0.79,6*0B
$GPGSV,3,1,12,41,65,152,29,05,64,027,40,29,37,336,33,15,33,159,30,1*6B
$GPGSV
196,28,073,22,13,24,118,33,195,22,068,20,18,21,283
196,28,073,22,13,24,118,33,195,22,068,20,18,21,283,23,1*69
$GPGSV,3,3,12,199,,,22,20,,,18,23,,,14,1
*53
$GAGSV,1,1,00,7*73
$GIGSV,1,1,02,02,,,31,05,
*53
$GAGSV,1,1,00,7*73
$GIGSV,1,1,02,02,,,31,05,,,32,1*7B
$GNGLL,1831.063272,N,07348.920562,E,152
A,A*4E
$PQTMANTENNASTATUS,1,0,1*4F

$GNRMC,152502.000,A,1831.063362,N,07348.920574,E,0
$GNRMC,152502.000,A,1831.063362,N,07348.920574,E,0.29,90.19,210125,,,A,V*38
$GNGGA,152502.000,1831.
,07348.920574,E,1,16,0.72,599.808,M,-64.657,M,,*53
,07348.920574,E,1,16,0.72,599.808,M,-64.657,M,,*53
$GNVTG,90.19,T,,M,0.29,N,0.54,K,A*18
$GNGSA,A,3
5,196,13,195,18,,,,,,1.07,0.72,0.79,1*0E
$GNGSA,A
5,196,13,195,18,,,,,,1.07,0.72,0.79,1*0E
$GNGSA,A,3,,,,,,,,,,,,,1.07,0.72,0.79,3*0E
$GNGSA,A,3,,,,
,1.07,0.72,0.79,6*0B
$GPGSV,3,1,12,41,65,152,28,0
,1.07,0.72,0.79,6*0B
$GPGSV,3,1,12,41,65,152,28,05,64,027,39,29,37,336,33,15,33,159,29,1*6C
$GPGSV
196,28,073,23,13,24,118,33,195,22,068,20,18,21,283
196,28,073,23,13,24,118,33,195,22,068,20,18,21,283,22,1*69
$GPGSV,3,3,12,199,,,21,20,,,20,23,,,15,1
*5A
$GAGSV,1,1,00,7*73
$GIGSV,1,1,02,02,,,31,05,
*5A
$GAGSV,1,1,00,7*73
$GIGSV,1,1,02,02,,,31,05,,,32,1*7B
$GNGLL,1831.063362,N,07348.920574,E,152
A,A*4A
$PQTMANTENNASTATUS,1,0,1*4F

$GNRMC,152503.000,A,1831.063416,N,07348.920592,E,0
$GNRMC,152503.000,A,1831.063416,N,07348.920592,E,0.19,90.19,210125,,,A,V*36
$GNGGA,152503.000,1831.
,07348.920592,E,1,16,0.72,599.858,M,-64.657,M,,*5B
,07348.920592,E,1,16,0.72,599.858,M,-64.657,M,,*5B
$GNVTG,90.19,T,,M,0.19,N,0.36,K,A*1F
$GNGSA,A,3
5,196,13,195,18,,,,,,1.07,0.72,0.79,1*0E
$GNGSA,A
5,196,13,195,18,,,,,,1.07,0.72,0.79,1*0E
$GNGSA,A,3,,,,,,,,,,,,,1.07,0.72,0.79,3*0E
$GNGSA,A,3,,,,
,1.07,0.72,0.79,6*0B
$GPGSV,3,1,12,41,65,152,28,0
,1.07,0.72,0.79,6*0B
$GPGSV,3,1,12,41,65,152,28,05,64,027,39,29,37,336,33,15,33,159,27,1*62
$GPGSV
196,28,073,22,13,24,118,33,195,22,068,21,18,21,283
196,28,073,22,13,24,118,33,195,22,068,21,18,21,283,21,1*6A
$GPGSV,3,3,12,199,,,20,20,,,20,23,,,15,1
*5B
$GAGSV,1,1,00,7*73
$GIGSV,1,1,02,02,,,30,05,
*5B
$GAGSV,1,1,00,7*73
$GIGSV,1,1,02,02,,,30,05,,,32,1*7A
$GNGLL,1831.063416,N,07348.920592,E,152
A,A*47
$PQTMANTENNASTATUS,1,0,1*4F

$GNRMC,152504.000,A,1831.063440,N,07348.920592,E,0
$GNRMC,152504.000,A,1831.063440,N,07348.920592,E,0.11,90.19,210125,,,A,V*3A
$GNGGA,152504.000,1831.
,07348.920592,E,1,16,0.72,599.858,M,-64.657,M,,*5F
,07348.920592,E,1,16,0.72,599.858,M,-64.657,M,,*5F
$GNVTG,90.19,T,,M,0.11,N,0.21,K,A*11
$GNGSA,A,3
5,196,13,195,18,,,,,,1.07,0.72,0.79,1*0E
$GNGSA,A
5,196,13,195,18,,,,,,1.07,0.72,0.79,1*0E
$GNGSA,A,3,,,,,,,,,,,,,1.07,0.72,0.79,3*0E
$GNGSA,A,3,,,,
,1.07,0.72,0.79,6*0B
$GPGSV,3,1,12,41,65,152,28,0
,1.07,0.72,0.79,6*0B
$GPGSV,3,1,12,41,65,152,28,05,64,027,38,29,37,336,33,15,33,159,25,1*61
$GPGSV
196,28,073,22,13,24,118,26,195,22,068,21,18,21,283
196,28,073,22,13,24,118,26,195,22,068,21,18,21,283,20,1*6F
$GPGSV,3,3,12,199,,,20,20,,,20,23,,,15,1
*5A
$GAGSV,1,1,00,7*73
$GIGSV,1,1,02,05,,,31,02,
*5A
$GAGSV,1,1,00,7*73
$GIGSV,1,1,02,05,,,31,02,,,29,1*71
$GNGLL,1831.063440,N,07348.920592,E,152
A,A*43
$PQTMANTENNASTATUS,1,0,1*4F

$PAIR010,0,0,2350,228442*35
$PAIR010,0,3,2350,228
$PAIR010,0,0,2350,228442*35
$PAIR010,0,3,2350,228442*36
$PAIR010,0,2,2350,228442*37
$GNRMC,152505
831.063410,N,07348.920544,E,0.20,90.19,210125,,,A,
831.063410,N,07348.920544,E,0.20,90.19,210125,,,A,V*37
$GNGGA,152505.000,1831.063410,N,07348.920544
0.72,599.863,M,-64.657,M,,*58
$GNVTG,90.19,T,,M,0
0.72,599.863,M,-64.657,M,,*58
$GNVTG,90.19,T,,M,0.20,N,0.37,K,A*14
$GNGSA,A,3,05,29,15,196,13,195,
1.07,0.72,0.79,1*0E
$GNGSA,A,3,,,,,,,,,,,,,1.07,0
1.07,0.72,0.79,1*0E
$GNGSA,A,3,,,,,,,,,,,,,1.07,0.72,0.79,3*0E
$GNGSA,A,3,,,,,,,,,,,,,1.07,0.72,0.

$GPGSV,3,1,12,41,65,152,28,05,64,027,39,29,37,336

$GPGSV,3,1,12,41,65,152,28,05,64,027,39,29,37,336,33,15,33,159,26,1*63
$GPGSV,3,2,12,196,28,073,23
18,27,195,22,068,22,18,21,283,20,1*6C
$GPGSV,3,3,
18,27,195,22,068,22,18,21,283,20,1*6C
$GPGSV,3,3,12,20,,,20,23,,,15,12,,,20,199,,,21,1*51
$GAGSV,1
73
$GIGSV,1,1,02,02,,,29,05,,,32,1*72
$GNGLL,183
73
$GIGSV,1,1,02,02,,,29,05,,,32,1*72
$GNGLL,1831.063410,N,07348.920544,E,152505.000,A,A*4C
$PQTM
TATUS,1,0,1*4F

$GNRMC,152506.000,A,1831.063410,N,07348.920574,E,0
$GNRMC,152506.000,A,1831.063410,N,07348.920574,E,0.24,90.19,210125,,,A,V*33
$GNGGA,152506.000,1831.
,07348.920574,E,1,16,0.72,599.881,M,-64.657,M,,*54
,07348.920574,E,1,16,0.72,599.881,M,-64.657,M,,*54
$GNVTG,90.19,T,,M,0.24,N,0.45,K,A*15
$GNGSA,A,3
5,196,13,195,18,,,,,,1.07,0.72,0.79,1*0E
$GNGSA,A
5,196,13,195,18,,,,,,1.07,0.72,0.79,1*0E
$GNGSA,A,3,,,,,,,,,,,,,1.07,0.72,0.79,3*0E
$GNGSA,A,3,,,,
,1.07,0.72,0.79,6*0B
$GPGSV,3,1,12,41,65,152,27,0
,1.07,0.72,0.79,6*0B
$GPGSV,3,1,12,41,65,152,27,05,64,027,39,29,37,336,33,15,33,159,25,1*6F
$GPGSV
196,28,073,24,13,24,118,29,195,22,068,22,18,21,283
196,28,073,24,13,24,118,29,195,22,068,22,18,21,283,20,1*65
$GPGSV,3,3,12,20,,,19,23,,,15,12,,,21,19
*59
$GAGSV,1,1,00,7*73
$GIGSV,1,1,02,02,,,28,05,
*59
$GAGSV,1,1,00,7*73
$GIGSV,1,1,02,02,,,28,05,,,32,1*73
$GNGLL,1831.063410,N,07348.920574,E,152
A,A*4C
$PQTMANTENNASTATUS,1,0,1*4F

$GNRMC,152507.000,A,1831.063368,N,07348.920574,E,0
$GNRMC,152507.000,A,1831.063368,N,07348.920574,E,0.22,90.19,210125,,,A,V*3C
$GNGGA,152507.000,1831.
,07348.920574,E,1,16,0.72,599.892,M,-64.657,M,,*5F
,07348.920574,E,1,16,0.72,599.892,M,-64.657,M,,*5F
$GNVTG,90.19,T,,M,0.22,N,0.41,K,A*17
$GNGSA,A,3
5,196,13,195,18,,,,,,1.07,0.72,0.79,1*0E
$GNGSA,A
5,196,13,195,18,,,,,,1.07,0.72,0.79,1*0E
$GNGSA,A,3,,,,,,,,,,,,,1.07,0.72,0.79,3*0E
$GNGSA,A,3,,,,
,1.07,0.72,0.79,6*0B
$GPGSV,3,1,12,41,65,152,28,0
,1.07,0.72,0.79,6*0B
$GPGSV,3,1,12,41,65,152,28,05,64,027,39,29,37,336,33,15,33,159,26,1*63
$GPGSV
196,28,073,24,13,24,118,29,195,22,068,22,18,21,283
196,28,073,24,13,24,118,29,195,22,068,22,18,21,283,20,1*65
$GPGSV,3,3,12,20,,,18,23,,,15,12,,,20,19
*59
$GAGSV,1,1,00,7*73
$GIGSV,1,1,02,02,,,29,05,
*59
$GAGSV,1,1,00,7*73
$GIGSV,1,1,02,02,,,29,05,,,31,1*71
$GNGLL,1831.063368,N,07348.920574,E,152
A,A*45
$PQTMANTENNASTATUS,1,0,1*4F

$GNRMC,152508.000,A,1831.063356,N,07348.920562,E,0
$GNRMC,152508.000,A,1831.063356,N,07348.920562,E,0.06,90.19,210125,,,A,V*3F
$GNGGA,152508.000,1831.
,07348.920562,E,1,16,0.72,599.891,M,-64.657,M,,*59
,07348.920562,E,1,16,0.72,599.891,M,-64.657,M,,*59
$GNVTG,90.19,T,,M,0.06,N,0.11,K,A*14
$GNGSA,A,3
5,196,13,195,18,,,,,,1.07,0.72,0.79,1*0E
$GNGSA,A
5,196,13,195,18,,,,,,1.07,0.72,0.79,1*0E
$GNGSA,A,3,,,,,,,,,,,,,1.07,0.72,0.79,3*0E
$GNGSA,A,3,,,,
,1.07,0.72,0.79,6*0B
$GPGSV,3,1,12,41,65,152,29,0
,1.07,0.72,0.79,6*0B
$GPGSV,3,1,12,41,65,152,29,05,64,027,39,29,37,336,33,15,33,159,27,1*63
$GPGSV
196,28,073,24,13,24,118,30,195,22,068,22,18,21,283
196,28,073,24,13,24,118,30,195,22,068,22,18,21,283,20,1*6D
$GPGSV,3,3,12,20,,,17,23,,,14,12,,,20,19
*54
$GAGSV,1,1,00,7*73
$GIGSV,1,1,02,02,,,29,05,
*54
$GAGSV,1,1,00,7*73
$GIGSV,1,1,02,02,,,29,05,,,31,1*71
$GNGLL,1831.063356,N,07348.920562,E,152
A,A*40
$PQTMANTENNASTATUS,1,0,1*4F

$GNRMC,152509.000,A,1831.063338,N,07348.920520,E,0
$GNRMC,152509.000,A,1831.063338,N,07348.920520,E,0.14,90.19,210125,,,A,V*33
$GNGGA,152509.000,1831.
,07348.920520,E,1,16,0.72,599.898,M,-64.657,M,,*5F
,07348.920520,E,1,16,0.72,599.898,M,-64.657,M,,*5F
$GNVTG,90.19,T,,M,0.14,N,0.26,K,A*13
$GNGSA,A,3
5,196,13,195,18,,,,,,1.07,0.72,0.79,1*0E
$GNGSA,A
5,196,13,195,18,,,,,,1.07,0.72,0.79,1*0E
$GNGSA,A,3,,,,,,,,,,,,,1.07,0.72,0.79,3*0E
$GNGSA,A,3,,,,
,1.07,0.72,0.79,6*0B
$GPGSV,3,1,12,41,65,152,30,0
,1.07,0.72,0.79,6*0B
$GPGSV,3,1,12,41,65,152,30,05,64,027,39,29,37,336,33,15,33,159,28,1*64
$GPGSV
196,28,073,24,13,24,118,30,195,22,068,22,18,21,283
196,28,073,24,13,24,118,30,195,22,068,22,18,21,283,19,1*67
$GPGSV,3,3,12,20,,,16,23,,,14,12,,,21,19
*55
$GAGSV,1,1,00,7*73
$GIGSV,1,1,02,02,,,29,05,
*55
$GAGSV,1,1,00,7*73
$GIGSV,1,1,02,02,,,29,05,,,30,1*70
$GNGLL,1831.063338,N,07348.920520,E,152
A,A*4F
$PQTMANTENNASTATUS,1,0,1*4F

$GNRMC,152510.000,A,1831.063356,N,07348.920544,E,0
$GNRMC,152510.000,A,1831.063356,N,07348.920544,E,0.32,90.19,210125,,,A,V*35
$GNGGA,152510.000,1831.
,07348.920544,E,1,16,0.72,599.882,M,-64.657,M,,*56
,07348.920544,E,1,16,0.72,599.882,M,-64.657,M,,*56
$GNVTG,90.19,T,,M,0.32,N,0.59,K,A*1F
$GNGSA,A,3
5,196,13,195,18,,,,,,1.07,0.72,0.79,1*0E
$GNGSA,A
5,196,13,195,18,,,,,,1.07,0.72,0.79,1*0E
$GNGSA,A,3,,,,,,,,,,,,,1.07,0.72,0.79,3*0E
$GNGSA,A,3,,,,
,1.07,0.72,0.79,6*0B
$GPGSV,3,1,12,41,65,152,29,0
,1.07,0.72,0.79,6*0B
$GPGSV,3,1,12,41,65,152,29,05,64,027,37,29,37,336,33,15,33,159,29,1*63
$GPGSV
196,28,073,23,13,24,118,31,195,22,068,22,18,21,283
196,28,073,23,13,24,118,31,195,22,068,22,18,21,283,19,1*61
$GPGSV,3,3,12,20,,,16,23,,,14,12,,,21,19
*5F
$GAGSV,1,1,00,7*73
$GIGSV,1,1,02,02,,,28,05,
*5F
$GAGSV,1,1,00,7*73
$GIGSV,1,1,02,02,,,28,05,,,30,1*71
$GNGLL,1831.063356,N,07348.920544,E,152
A,A*4D
$PQTMANTENNASTATUS,1,0,1*4F

$GNRMC,152511.000,A,1831.063314,N,07348.920490,E,0
$GNRMC,152511.000,A,1831.063314,N,07348.920490,E,0.29,90.19,210125,,,A,V*30
$GNGGA,152511.000,1831.
,07348.920490,E,1,16,0.72,599.868,M,-64.657,M,,*5D
,07348.920490,E,1,16,0.72,599.868,M,-64.657,M,,*5D
$GNVTG,90.19,T,,M,0.29,N,0.54,K,A*18
$GNGSA,A,3
5,196,13,195,18,,,,,,1.07,0.72,0.79,1*0E
$GNGSA,A
5,196,13,195,18,,,,,,1.07,0.72,0.79,1*0E
$GNGSA,A,3,,,,,,,,,,,,,1.07,0.72,0.79,3*0E
$GNGSA,A,3,,,,
,1.07,0.72,0.79,6*0B
$GPGSV,3,1,12,41,65,152,28,0
,1.07,0.72,0.79,6*0B
$GPGSV,3,1,12,41,65,152,28,05,64,027,36,29,37,336,32,15,33,159,29,1*62
$GPGSV
196,28,073,25,13,24,118,31,195,22,068,23,18,21,283
196,28,073,25,13,24,118,31,195,22,068,23,18,21,283,19,1*66
$GPGSV,3,3,12,20,,,16,23,,,15,12,,,21,19
*5F
$GAGSV,1,1,00,7*73
$GIGSV,1,1,02,02,,,27,05,
*5F
$GAGSV,1,1,00,7*73
$GIGSV,1,1,02,02,,,27,05,,,31,1*7F
$GNGLL,1831.063314,N,07348.920490,E,152
A,A*42
$PQTMANTENNASTATUS,1,0,1*4F

$GNRMC,152512.000,A,1831.063284,N,07348.920496,E,0
$GNRMC,152512.000,A,1831.063284,N,07348.920496,E,0.10,90.19,210125,,,A,V*37
$GNGGA,152512.000,1831.
,07348.920496,E,1,16,0.72,599.869,M,-64.657,M,,*51
,07348.920496,E,1,16,0.72,599.869,M,-64.657,M,,*51
$GNVTG,90.19,T,,M,0.10,N,0.19,K,A*1B
$GNGSA,A,3
5,196,13,195,18,,,,,,1.07,0.72,0.79,1*0E
$GNGSA,A
5,196,13,195,18,,,,,,1.07,0.72,0.79,1*0E
$GNGSA,A,3,,,,,,,,,,,,,1.07,0.72,0.79,3*0E
$GNGSA,A,3,,,,
,1.07,0.72,0.79,6*0B
$GPGSV,3,1,12,41,65,152,28,0
,1.07,0.72,0.79,6*0B
$GPGSV,3,1,12,41,65,152,28,05,64,027,35,29,37,336,32,15,33,159,29,1*61
$GPGSV
196,28,073,25,13,24,118,31,195,22,068,23,18,21,283
196,28,073,25,13,24,118,31,195,22,068,23,18,21,283,19,1*66
$GPGSV,3,3,12,20,,,16,23,,,15,12,,,21,19
*50
$GAGSV,1,1,00,7*73
$GIGSV,1,1,02,02,,,26,05,
*50
$GAGSV,1,1,00,7*73
$GIGSV,1,1,02,02,,,26,05,,,31,1*7E
$GNGLL,1831.063284,N,07348.920496,E,152
A,A*4F
$PQTMANTENNASTATUS,1,0,1*4F

$GNRMC,152513.000,A,1831.063242,N,07348.920478,E,0
$GNRMC,152513.000,A,1831.063242,N,07348.920478,E,0.21,90.19,210125,,,A,V*3E
$GNGGA,152513.000,1831.
,07348.920478,E,1,16,0.72,599.854,M,-64.657,M,,*54
,07348.920478,E,1,16,0.72,599.854,M,-64.657,M,,*54
$GNVTG,90.19,T,,M,0.21,N,0.40,K,A*15
$GNGSA,A,3
5,196,13,195,18,,,,,,1.07,0.72,0.79,1*0E
$GNGSA,A
5,196,13,195,18,,,,,,1.07,0.72,0.79,1*0E
$GNGSA,A,3,,,,,,,,,,,,,1.07,0.72,0.79,3*0E
$GNGSA,A,3,,,,
,1.07,0.72,0.79,6*0B
$GPGSV,3,1,12,41,65,152,28,0
,1.07,0.72,0.79,6*0B
$GPGSV,3,1,12,41,65,152,28,05,64,027,37,29,37,336,32,15,33,159,29,1*63
$GPGSV
196,28,073,24,13,24,118,30,195,22,068,23,18,21,283
196,28,073,24,13,24,118,30,195,22,068,23,18,21,283,19,1*66
$GPGSV,3,3,12,20,,,16,23,,,15,12,,,21,19
*50
$GAGSV,1,1,00,7*73
$GIGSV,1,1,02,02,,,27,05,
*50
$GAGSV,1,1,00,7*73
$GIGSV,1,1,02,02,,,27,05,,,31,1*7F
$GNGLL,1831.063242,N,07348.920478,E,152
A,A*44
$PQTMANTENNASTATUS,1,0,1*4F

$GNRMC,152514.000,A,1831.063236,N,07348.920502,E,0
